[
  {
    "name": "Centro Porsche Bolzano / Porsche Zentrum Bozen",
    "lat": "46.4831778",
    "lng": "11.3348997",
    "prize-de": "Porsche",
    "prize-it": "Porsche"
  },
  {
    "name": "Sportler AG",
    "lat": "46.4996367",
    "lng": "11.3541693",
    "prize-de": "E-Bike",
    "prize-it": "E-Bike"
  },
  {
    "name": "Goldschmiede Mair",
    "lat": "46.5716328",
    "lng": "11.2860186",
    "prize-de": "Uhr",
    "prize-it": "Orologio"
  },
  {
    "name": "Brasolin Auto srl",
    "lat": "46.4687271",
    "lng": "11.3296031",
    "prize-de": "E-Scooter",
    "prize-it": "E-Scooter"
  },
  {
    "name": "Gioielleria Ranzi - Knapp Juwelen",
    "lat": "46.4987835",
    "lng": "11.3547966",
    "prize-de": "Ring",
    "prize-it": "Anello"
  },
  {
    "name": "Parkhotel Laurin",
    "lat": "46.4987835",
    "lng": "11.3547966",
    "prize-de": "Weekend \"Jazz&Gourmet\" ",
    "prize-it": "Weekend \"Jazz&Gourmet\" III Parkhotel Laurin per 2 persone"
  },
  {
    "name": "Pörnbacher Josef",
    "lat": "46.499564",
    "lng": "11.351392",
    "prize-de": "Kette",
    "prize-it": "Collana"
  },
  {
    "name": "Gioielleria Ranzi - Knapp Juwelen",
    "lat": "46.4987835",
    "lng": "11.3547966",
    "prize-de": "Uhr ",
    "prize-it": "orologio "
  },
  {
    "name": "Hockey Club Bozen 2000 ",
    "lat": "46.4778058",
    "lng": "11.3316019",
    "prize-de": "600 € Gutschein ",
    "prize-it": "600 € Buono acquisto"
  },
  {
    "name": "Parfumerie Ferrari",
    "lat": "46.4997773",
    "lng": "11.3420701",
    "prize-de": "Pflegeset \"Decorte\"",
    "prize-it": "Set cura \"Decorte\""
  },
  {
    "name": "Oberrauch Zitt",
    "lat": "46.4995587",
    "lng": "11.3507876",
    "prize-de": "500 € Gutschein ",
    "prize-it": "500 € Buono acquisto"
  },
  {
    "name": "Oberrauch Zitt",
    "lat": "46.4995587",
    "lng": "11.3507876",
    "prize-de": "500 € Gutschein ",
    "prize-it": "500 € Buono acquisto"
  },
  {
    "name": "Oberrauch Zitt",
    "lat": "46.4995587",
    "lng": "11.3507876",
    "prize-de": "500 € Gutschein ",
    "prize-it": "500 € Buono acquisto"
  },
  {
    "name": "Oberrauch Zitt",
    "lat": "46.4995587",
    "lng": "11.3507876",
    "prize-de": "500 € Gutschein ",
    "prize-it": "500 € Buono acquisto"
  },
  {
    "name": "DESPAR",
    "lat": "46.4697008",
    "lng": "11.320165",
    "prize-de": "500 € Despar-Einkaufsgutschein „Happy Card“",
    "prize-it": "500 € Despar-buono acquisto \"Happy Card\""
  },
  {
    "name": "hds unione",
    "lat": "46.4927532",
    "lng": "11.3308774",
    "prize-de": "500 € Gutschein Monni card ",
    "prize-it": "500 € Buono Monni card "
  },
  {
    "name": "hds unione",
    "lat": "46.4927532",
    "lng": "11.3308774",
    "prize-de": "500 € Gutschein Monni card ",
    "prize-it": "500 € Buono Monni card "
  },
  {
    "name": "Gutweniger Giocattoli · Spielwaren",
    "lat": "46.5003911",
    "lng": "11.3534188",
    "prize-de": "500 € Lego Technic",
    "prize-it": "500 € Lego technic "
  },
  {
    "name": "Meta Restaurant",
    "lat": "46.4981663",
    "lng": "11.3521604",
    "prize-de": "Barkeeper Kurs für 4 Personen",
    "prize-it": "Corso barista x 4 persone "
  },
  {
    "name": "Messerschmiede N.Lorenzi Colltelleria ",
    "lat": "46.5000936",
    "lng": "11.3544898",
    "prize-de": "Aufschneidemaschine 220 CES",
    "prize-it": "Affettatrice 220 CES "
  },
  {
    "name": "Sky Alps Tour Operator S.r.l",
    "lat": "46.4992398",
    "lng": "11.3533226",
    "prize-de": "Flug im Wert von 450 €",
    "prize-it": "Volo del valore di 450 € "
  },
  {
    "name": "Provoice",
    "lat": "46.47264",
    "lng": "11.3224443",
    "prize-de": "Rundflug",
    "prize-it": "Volo panoramico"
  },
  {
    "name": "Tecnoservice",
    "lat": "46.485623",
    "lng": "11.3459028",
    "prize-de": "Klimaanlage",
    "prize-it": "Climatizzatore"
  },
  {
    "name": "Bressan snc",
    "lat": "46.4948333",
    "lng": "11.3444704",
    "prize-de": "Tischlampe",
    "prize-it": "Lampada da tavolo "
  },
  {
    "name": "Trony ",
    "lat": "46.4914643",
    "lng": "11.3123267",
    "prize-de": "TVC Led 50'' smart TV + Sat nordmende",
    "prize-it": "TVC Led 50'' smart TV + Sat nordmende"
  },
  {
    "name": "Buratti snc",
    "lat": "46.4988861",
    "lng": "11.3544096",
    "prize-de": "Store card Buratti ",
    "prize-it": "Store card Buratti "
  },
  {
    "name": "Buratti snc",
    "lat": "46.4988861",
    "lng": "11.3544096",
    "prize-de": "Store card Buratti ",
    "prize-it": "Store card Buratti "
  },
  {
    "name": "Buratti snc",
    "lat": "46.4988861",
    "lng": "11.3544096",
    "prize-de": "Store card Buratti ",
    "prize-it": "Store card Buratti "
  },
  {
    "name": "Globus",
    "lat": "46.5854246",
    "lng": "11.1879639",
    "prize-de": "300 € Gutschein ",
    "prize-it": "300 € Buono acquisto"
  },
  {
    "name": "Globus",
    "lat": "46.5854246",
    "lng": "11.1879639",
    "prize-de": "300 € Gutschein ",
    "prize-it": "300 € Buono acquisto"
  },
  {
    "name": "Globus",
    "lat": "46.5854246",
    "lng": "11.1879639",
    "prize-de": "300 € Gutschein ",
    "prize-it": "300 € Buono acquisto"
  },
  {
    "name": "Joli Nails & Beauty",
    "lat": "46.4927532",
    "lng": "11.3308774",
    "prize-de": "4 Massagen",
    "prize-it": "Massaggio 4 trattamenti"
  },
  {
    "name": "Twenty srl",
    "lat": "46.486498",
    "lng": "11.334158",
    "prize-de": "Twenty giftcard",
    "prize-it": "Twenty giftcard"
  },
  {
    "name": "hds unione",
    "lat": "46.4927532",
    "lng": "11.3308774",
    "prize-de": "250 € Gutschein Monni card ",
    "prize-it": "250 € Buoni Monni card "
  },
  {
    "name": "hds unione",
    "lat": "46.4927532",
    "lng": "11.3308774",
    "prize-de": "250 € Gutschein Monni card ",
    "prize-it": "250 € Buoni Monni card "
  },
  {
    "name": "hds unione",
    "lat": "46.4927532",
    "lng": "11.3308774",
    "prize-de": "250 € Gutschein Monni card ",
    "prize-it": "250 € Buoni Monni card "
  },
  {
    "name": "hds unione",
    "lat": "46.4927532",
    "lng": "11.3308774",
    "prize-de": "250 € Gutschein Monni card ",
    "prize-it": "250 € Buoni Monni card "
  },
  {
    "name": "hds unione",
    "lat": "46.4927532",
    "lng": "11.3308774",
    "prize-de": "250 € Gutschein Monni card ",
    "prize-it": "250 € Buoni Monni card "
  },
  {
    "name": "hds unione",
    "lat": "46.4927532",
    "lng": "11.3308774",
    "prize-de": "250 € Gutschein Monni card ",
    "prize-it": "250 € Buoni Monni card "
  },
  {
    "name": "hds unione",
    "lat": "46.4927532",
    "lng": "11.3308774",
    "prize-de": "250 € Gutschein Monni card ",
    "prize-it": "250 € Buoni Monni card "
  },
  {
    "name": "hds unione",
    "lat": "46.4927532",
    "lng": "11.3308774",
    "prize-de": "250 € Gutschein Monni card ",
    "prize-it": "250 € Buoni Monni card "
  },
  {
    "name": "Galleria Alessandro Casciaro",
    "lat": "46.4959159",
    "lng": "11.3501625",
    "prize-de": "Radierung von Paul Flora",
    "prize-it": "Incisione di Paul Flora "
  },
  {
    "name": "Mundus Reisen",
    "lat": "46.4953048",
    "lng": "11.3520981",
    "prize-de": "Reisegutschein",
    "prize-it": "Buono viaggio"
  },
  {
    "name": "Mundus Reisen",
    "lat": "46.4953048",
    "lng": "11.3520981",
    "prize-de": "Reisegutschein",
    "prize-it": "Buono viaggio"
  },
  {
    "name": "Noistudio ",
    "lat": "46.4808372",
    "lng": "11.3137057",
    "prize-de": "Frauenuhr",
    "prize-it": "orologio donna "
  },
  {
    "name": "Noistudio ",
    "lat": "46.4808372",
    "lng": "11.3137057",
    "prize-de": "Männeruhr",
    "prize-it": "orologio uomo "
  },
  {
    "name": "Noistudio ",
    "lat": "46.4808372",
    "lng": "11.3137057",
    "prize-de": "Armband",
    "prize-it": "Bracciale unisex "
  },
  {
    "name": "Eccel Decorona",
    "lat": "46.5001042",
    "lng": "11.3528633",
    "prize-de": "Federbett",
    "prize-it": "Piumino "
  },
  {
    "name": "Eccel Decorona",
    "lat": "46.5001042",
    "lng": "11.3528633",
    "prize-de": "Federbett",
    "prize-it": "Piumino"
  },
  {
    "name": "Novalux ",
    "lat": "46.4851516",
    "lng": "11.339154",
    "prize-de": "Thermostat smart bliss 2",
    "prize-it": "Termostato smart bliss 2"
  },
  {
    "name": "Pörnbacher Josef",
    "lat": "46.499564",
    "lng": "11.351392",
    "prize-de": "Silberarmband",
    "prize-it": "Braccialetto in argento in 925/000 "
  },
  {
    "name": "Meta Restaurant",
    "lat": "46.4981663",
    "lng": "11.3521604",
    "prize-de": "Degustationsmenü für 2 Personen",
    "prize-it": "Degustazione del menu (x 2 persone)"
  },
  {
    "name": "Meta Restaurant",
    "lat": "46.4981663",
    "lng": "11.3521604",
    "prize-de": "Degustationsmenü für 2 Personen",
    "prize-it": "Degustazione del menu (x 2 persone) "
  },
  {
    "name": "La Culla Baby-Land ",
    "lat": "46.4695616",
    "lng": "11.3330804",
    "prize-de": "Stokke steps ",
    "prize-it": "Stokke steps "
  },
  {
    "name": "La Culla Baby-Land ",
    "lat": "46.4695616",
    "lng": "11.3330804",
    "prize-de": "Stokketripp-trapp ",
    "prize-it": "Stokketripp-trapp "
  },
  {
    "name": "Four Points Sheraton ",
    "lat": "46.4718501",
    "lng": "11.3226049",
    "prize-de": "1 Übernachtung mit Frühstück",
    "prize-it": "1 pernottamento per due persone colazione inclusa  "
  },
  {
    "name": "Vis a Vis",
    "lat": "46.5038724",
    "lng": "11.3406095",
    "prize-de": "Behandlung skinneedling mit BBglow ",
    "prize-it": "Trattamento skinneedling con BBglow "
  },
  {
    "name": "Home living ",
    "lat": "46.4931908",
    "lng": "11.3717195",
    "prize-de": "Topf set ",
    "prize-it": " set pentole"
  },
  {
    "name": "Ottica Gianni",
    "lat": "46.489456",
    "lng": "11.3305072",
    "prize-de": "Brille Lamarca mod.intagli 88 ",
    "prize-it": "Occhiale Lamarca mod.intagli 88 "
  },
  {
    "name": "Elena Hair ",
    "lat": "46.49188",
    "lng": "11.3339027",
    "prize-de": " 5 Friseurgutscheine",
    "prize-it": "5 pieghe donna "
  },
  {
    "name": "Bressan ",
    "lat": "46.4948333",
    "lng": "11.3444704",
    "prize-de": "Cini&Nils cubo britto",
    "prize-it": "Cini&Nils cubo britto"
  },
  {
    "name": "Hotel Magdalener Hof",
    "lat": "46.4981727",
    "lng": "11.3736147",
    "prize-de": "2 Übernachtungen  mit Frühstück",
    "prize-it": "2 notti con colazione per 2 persone "
  },
  {
    "name": "Novalux ",
    "lat": "46.4851516",
    "lng": "11.339154",
    "prize-de": "UPS Legrand 310180 ",
    "prize-it": "UPS Legrand 310180 "
  },
  {
    "name": "Parfumerie Ferrari",
    "lat": "46.4997773",
    "lng": "11.3420701",
    "prize-de": "150 € Gutschein",
    "prize-it": "150 € Buono acquisto"
  },
  {
    "name": "Bricocenter Straudi",
    "lat": "46.4933322",
    "lng": "11.3566926",
    "prize-de": "150 € Gutschein",
    "prize-it": "150 € Buono acquisto"
  },
  {
    "name": "Bricocenter Straudi",
    "lat": "46.4933322",
    "lng": "11.3566926",
    "prize-de": "150 € Gutschein",
    "prize-it": "150 € Buono acquisto"
  },
  {
    "name": "Bricocenter Straudi",
    "lat": "46.4933322",
    "lng": "11.3566926",
    "prize-de": "150 € Gutschein",
    "prize-it": "150 € Buono acquisto"
  },
  {
    "name": "Bricocenter Straudi",
    "lat": "46.4933322",
    "lng": "11.3566926",
    "prize-de": "150 € Gutschein",
    "prize-it": "150 € Buono acquisto"
  },
  {
    "name": "Bricocenter Straudi",
    "lat": "46.4933322",
    "lng": "11.3566926",
    "prize-de": "150 € Gutschein",
    "prize-it": "150 € Buono acquisto"
  },
  {
    "name": "Fielmann",
    "lat": "46.4996268",
    "lng": "11.3492469",
    "prize-de": "Brillen-Gutschein",
    "prize-it": "Buono acquisto su occhiali da sole o da vista con altre promozioni "
  },
  {
    "name": "Fielmann",
    "lat": "46.4996268",
    "lng": "11.3492469",
    "prize-de": "Brillen-Gutschein",
    "prize-it": "Buono acquisto su occhiali da sole o da vista con altre promozioni "
  },
  {
    "name": "Fielmann",
    "lat": "46.4996268",
    "lng": "11.3492469",
    "prize-de": "Brillen-Gutschein",
    "prize-it": "Buono acquisto su occhiali da sole o da vista con altre promozioni "
  },
  {
    "name": "Elena Hair ",
    "lat": "46.49188",
    "lng": "11.3339027",
    "prize-de": "5 Friseurgutscheine",
    "prize-it": "5 taglio uomo "
  },
  {
    "name": "DESPAR",
    "lat": "46.4697008",
    "lng": "11.320165",
    "prize-de": "150 € Despar-Einkaufsgutschein „Happy Card“",
    "prize-it": "150 € Despar-buono acquisto Happy Card"
  },
  {
    "name": "DESPAR",
    "lat": "46.4697008",
    "lng": "11.320165",
    "prize-de": "150 € Despar-Einkaufsgutschein „Happy Card“",
    "prize-it": "150 € Despar-buono acquisto Happy Card"
  },
  {
    "name": "DESPAR",
    "lat": "46.4697008",
    "lng": "11.320165",
    "prize-de": "150 € Despar-Einkaufsgutschein „Happy Card“",
    "prize-it": "150 € Despar-buono acquisto Happy Card"
  },
  {
    "name": "DESPAR",
    "lat": "46.4697008",
    "lng": "11.320165",
    "prize-de": "150 € Despar-Einkaufsgutschein „Happy Card“",
    "prize-it": "150 € Despar-buono acquisto Happy Card"
  },
  {
    "name": "DESPAR",
    "lat": "46.4697008",
    "lng": "11.320165",
    "prize-de": "150 € Despar-Einkaufsgutschein „Happy Card“",
    "prize-it": "150 € Despar-buono acquisto Happy Card"
  },
  {
    "name": "DESPAR",
    "lat": "46.4697008",
    "lng": "11.320165",
    "prize-de": "150 € Despar-Einkaufsgutschein „Happy Card“",
    "prize-it": "150 € Despar-buono acquisto Happy Card"
  },
  {
    "name": "DESPAR",
    "lat": "46.4697008",
    "lng": "11.320165",
    "prize-de": "150 € Despar-Einkaufsgutschein „Happy Card“",
    "prize-it": "150 € Despar-buono acquisto Happy Card"
  },
  {
    "name": "DESPAR",
    "lat": "46.4697008",
    "lng": "11.320165",
    "prize-de": "150 € Despar-Einkaufsgutschein „Happy Card“",
    "prize-it": "150 € Despar-buono acquisto Happy Card"
  },
  {
    "name": "DESPAR",
    "lat": "46.4697008",
    "lng": "11.320165",
    "prize-de": "150 € Despar-Einkaufsgutschein „Happy Card“",
    "prize-it": "150 € Despar-buono acquisto Happy Card"
  },
  {
    "name": "DESPAR",
    "lat": "46.4697008",
    "lng": "11.320165",
    "prize-de": "150 € Despar-Einkaufsgutschein „Happy Card“",
    "prize-it": "150 € Despar-buono acquisto Happy Card"
  },
  {
    "name": "DESPAR",
    "lat": "46.4697008",
    "lng": "11.320165",
    "prize-de": "150 € Despar-Einkaufsgutschein „Happy Card“",
    "prize-it": "150 € Despar-buono acquisto Happy Card"
  },
  {
    "name": "DESPAR",
    "lat": "46.4697008",
    "lng": "11.320165",
    "prize-de": "150 € Despar-Einkaufsgutschein „Happy Card“",
    "prize-it": "150 € Despar-buono acquisto Happy Card"
  },
  {
    "name": "DESPAR",
    "lat": "46.4697008",
    "lng": "11.320165",
    "prize-de": "150 € Despar-Einkaufsgutschein „Happy Card“",
    "prize-it": "150 € Despar-buono acquisto Happy Card"
  },
  {
    "name": "DESPAR",
    "lat": "46.4697008",
    "lng": "11.320165",
    "prize-de": "150 € Despar-Einkaufsgutschein „Happy Card“",
    "prize-it": "150 € Despar-buono acquisto Happy Card"
  },
  {
    "name": "DESPAR",
    "lat": "46.4697008",
    "lng": "11.320165",
    "prize-de": "150 € Despar-Einkaufsgutschein „Happy Card“",
    "prize-it": "150 € Despar-buono acquisto Happy Card"
  },
  {
    "name": "DESPAR",
    "lat": "46.4697008",
    "lng": "11.320165",
    "prize-de": "150 € Despar-Einkaufsgutschein „Happy Card“",
    "prize-it": "150 € Despar-buono acquisto Happy Card"
  },
  {
    "name": "Novalux ",
    "lat": "46.4851516",
    "lng": "11.339154",
    "prize-de": "Tischlampe",
    "prize-it": "Lampada da tavolo led "
  },
  {
    "name": "La Culla Baby-Land ",
    "lat": "46.4695616",
    "lng": "11.3330804",
    "prize-de": "Odenwaelder saccomucky p5 ",
    "prize-it": "Odenwaelder saccomucky p5 "
  },
  {
    "name": "La Culla Baby-Land ",
    "lat": "46.4695616",
    "lng": "11.3330804",
    "prize-de": "Odenwaelder saccomucky p5 ",
    "prize-it": "Odenwaelder saccomucky p5 "
  },
  {
    "name": "Joli Nails & Beauty",
    "lat": "46.4927532",
    "lng": "11.3308774",
    "prize-de": "Gesichts- und Körperbehandlung ",
    "prize-it": "Trattamento viso e corpo "
  },
  {
    "name": "Hopfen&Co. ",
    "lat": "46.4992914",
    "lng": "11.3503616",
    "prize-de": "Bierfass zu 5 l",
    "prize-it": "Fusto 5 lt.birra "
  },
  {
    "name": "Grüne Import Paganella ",
    "lat": "46.47404",
    "lng": "11.324486",
    "prize-de": "Slokker Helm",
    "prize-it": "Slokker casco randal "
  },
  {
    "name": "Optik Walter",
    "lat": "46.499653",
    "lng": "11.3535655",
    "prize-de": "Sonnenbrille",
    "prize-it": "Occhiale da sole"
  },
  {
    "name": "SIGI d.Covi DStephan&Co. KG",
    "lat": "46.5001057",
    "lng": "11.3586134",
    "prize-de": "Torcia Led Lenser ",
    "prize-it": "Torcia Led Lenser "
  },
  {
    "name": "DESPAR",
    "lat": "46.4697008",
    "lng": "11.320165",
    "prize-de": "100 € Despar-Einkaufsgutscheine „Happy Card\"",
    "prize-it": "100 € Despar-buono acquisto Happy Card"
  },
  {
    "name": "Intimissimi via Museo/Museumstr.",
    "lat": "46.4996346",
    "lng": "11.3496575",
    "prize-de": "100 € Intimissimi Gutschein",
    "prize-it": "100 € Buono negozio intimissimi donna  "
  },
  {
    "name": "Intimissimi via Museo/Museumstr.",
    "lat": "46.4996346",
    "lng": "11.3496575",
    "prize-de": "100 € Intimissimi Gutschein",
    "prize-it": "100 € Buono negozio intimissimi donna  "
  },
  {
    "name": "Gutweniger Giocattoli · Spielwaren",
    "prize-de": "Einkaufsgutschein",
    "prize-it": "Buono acquisto"
  },
  {
    "name": "Intimissimi via Museo/Museumstr.",
    "lat": "46.4996346",
    "lng": "11.3496575",
    "prize-de": "100 € Intimissimi Gutschein",
    "prize-it": "100 € Buono intimissimi  uomo "
  },
  {
    "name": "Intimissimi via Museo/Museumstr.",
    "lat": "46.4996346",
    "lng": "11.3496575",
    "prize-de": "100 € Intimissimi Gutschein",
    "prize-it": "100 € Buono intimissimi  uomo "
  },
  {
    "name": "Gutweniger Giocattoli · Spielwaren",
    "lat": "46.5003911",
    "lng": "11.3534188",
    "prize-de": "100 € Gutschein",
    "prize-it": "100 € Buono acquisto"
  },
  {
    "name": "hds unione",
    "lat": "46.4927532",
    "lng": "11.3308774",
    "prize-de": "100 € Gutschein Monni card ",
    "prize-it": "100 € Buoni Monni card "
  },
  {
    "name": "hds unione",
    "lat": "46.4927532",
    "lng": "11.3308774",
    "prize-de": "100 € Gutschein Monni card ",
    "prize-it": "100 € Buoni Monni card "
  },
  {
    "name": "hds unione",
    "lat": "46.4927532",
    "lng": "11.3308774",
    "prize-de": "100 € Gutschein Monni card ",
    "prize-it": "100 € Buoni Monni card "
  },
  {
    "name": "hds unione",
    "lat": "46.4927532",
    "lng": "11.3308774",
    "prize-de": "100 € Gutschein Monni card ",
    "prize-it": "100 € Buoni Monni card "
  },
  {
    "name": "hds unione",
    "lat": "46.4927532",
    "lng": "11.3308774",
    "prize-de": "100 € Gutschein Monni card ",
    "prize-it": "100 € Buoni Monni card "
  },
  {
    "name": "hds unione",
    "lat": "46.4927532",
    "lng": "11.3308774",
    "prize-de": "100 € Gutschein Monni card ",
    "prize-it": "100 € Buoni Monni card "
  },
  {
    "name": "hds unione",
    "lat": "46.4927532",
    "lng": "11.3308774",
    "prize-de": "100 € Gutschein Monni card ",
    "prize-it": "100 € Buoni Monni card "
  },
  {
    "name": "hds unione",
    "lat": "46.4927532",
    "lng": "11.3308774",
    "prize-de": "100 € Gutschein Monni card ",
    "prize-it": "100 € Buoni Monni card "
  },
  {
    "name": "hds unione",
    "lat": "46.4927532",
    "lng": "11.3308774",
    "prize-de": "100 € Gutschein Monni card ",
    "prize-it": "100 € Buoni Monni card "
  },
  {
    "name": "hds unione",
    "lat": "46.4927532",
    "lng": "11.3308774",
    "prize-de": "100 € Gutschein Monni card ",
    "prize-it": "100 € Buoni Monni card "
  },
  {
    "name": "Torgglhaus Al Torchio",
    "lat": "46.4996963",
    "lng": "11.3501926",
    "prize-de": "Abendessen für 2 Perosnen",
    "prize-it": "Cena per due persone "
  },
  {
    "name": "Palais Moire",
    "lat": "46.499951",
    "lng": "11.350764",
    "prize-de": "100 € Gutschein",
    "prize-it": "100 € Buono acquisto"
  },
  {
    "name": "Palais Moire",
    "lat": "46.499951",
    "lng": "11.350764",
    "prize-de": "100 € Gutschein",
    "prize-it": "100 € Buono acquisto"
  },
  {
    "name": "Palais Moire",
    "lat": "46.499951",
    "lng": "11.350764",
    "prize-de": "100 € Gutschein",
    "prize-it": "100 € Buono acquisto"
  },
  {
    "name": "Palais Moire",
    "lat": "46.499951",
    "lng": "11.350764",
    "prize-de": "100 € Gutschein",
    "prize-it": "100 € Buono acquisto"
  },
  {
    "name": "Palais Moire",
    "lat": "46.499951",
    "lng": "11.350764",
    "prize-de": "100 € Gutschein",
    "prize-it": "100 € Buono acquisto"
  },
  {
    "name": "Panificio Lemayr ",
    "lat": "46.4995175",
    "lng": "11.3515024",
    "prize-de": "100 € Gutschein",
    "prize-it": "100 € Buono acquisto"
  },
  {
    "name": "Panificio Lemayr ",
    "lat": "46.4995175",
    "lng": "11.3515024",
    "prize-de": "100 € Gutschein",
    "prize-it": "100 € Buono acquisto"
  },
  {
    "name": "Panificio Lemayr ",
    "lat": "46.4995175",
    "lng": "11.3515024",
    "prize-de": "Beautyset",
    "prize-it": "100 € Buono acquisto"
  },
  {
    "name": "Thaler ",
    "lat": "46.499574",
    "lng": "11.3507497",
    "prize-de": "Beautyset",
    "prize-it": "Set prodotti beauty "
  },
  {
    "name": "Thaler ",
    "lat": "46.499574",
    "lng": "11.3507497",
    "prize-de": "Beautyset",
    "prize-it": "Set prodotti beauty "
  },
  {
    "name": "Thaler ",
    "lat": "46.499574",
    "lng": "11.3507497",
    "prize-de": "Beautyset",
    "prize-it": "Set prodotti beauty "
  },
  {
    "name": "Thaler ",
    "lat": "46.499574",
    "lng": "11.3507497",
    "prize-de": "Beautyset",
    "prize-it": "Set prodotti beauty "
  },
  {
    "name": "Thaler ",
    "lat": "46.499574",
    "lng": "11.3507497",
    "prize-de": "Beautyset",
    "prize-it": "Set prodotti beauty "
  },
  {
    "name": "Zari Bolzano",
    "lat": "46.4991121",
    "lng": "11.3546622",
    "prize-de": "100 € Gutschein",
    "prize-it": "100 € Buono acquisto"
  },
  {
    "name": "Bricocenter Straudi ",
    "lat": "46.4933322",
    "lng": "11.3566926",
    "prize-de": "100 € Gutschein",
    "prize-it": "100 € Buono acquisto"
  },
  {
    "name": "Bricocenter Straudi ",
    "lat": "46.4933322",
    "lng": "11.3566926",
    "prize-de": "100 € Gutschein",
    "prize-it": "100 € Buono acquisto"
  },
  {
    "name": "Bricocenter Straudi ",
    "lat": "46.4933322",
    "lng": "11.3566926",
    "prize-de": "100 € Gutschein",
    "prize-it": "100 € Buono acquisto"
  },
  {
    "name": "Bricocenter Straudi ",
    "lat": "46.4933322",
    "lng": "11.3566926",
    "prize-de": "100 € Gutschein",
    "prize-it": "100 € Buono acquisto"
  },
  {
    "name": "Bricocenter Straudi ",
    "lat": "46.4933322",
    "lng": "11.3566926",
    "prize-de": "100 € Gutschein",
    "prize-it": "100 € Buono acquisto"
  },
  {
    "name": "Castel Flavon - Haselburg",
    "lat": "46.4766244",
    "lng": "11.3413607",
    "prize-de": "100 € Gutschein",
    "prize-it": "100 € Buono acquisto"
  },
  {
    "name": "Restaurant Nadamas",
    "lat": "46.5001504",
    "lng": "11.3507844",
    "prize-de": "Abendessen",
    "prize-it": "Cena"
  },
  {
    "name": "Termoservice ",
    "lat": "46.4857338",
    "lng": "11.3198161",
    "prize-de": "Preisnachlass auf Klimaanlagen  \"Riello\" ",
    "prize-it": "Sconto su fornitura climatizzatore \"Riello\" "
  },
  {
    "name": "Termoservice ",
    "lat": "46.4857338",
    "lng": "11.3198161",
    "prize-de": "Preisnachlass auf Klimaanlagen  \"Riello\" ",
    "prize-it": "Sconto su fornitura climatizzatore \"Riello\" "
  },
  {
    "name": "Castel Flavon - Haselburg ",
    "lat": "46.4766244",
    "lng": "11.3413607",
    "prize-de": "100 € Gutschein",
    "prize-it": "100 € Buono acquisto"
  },
  {
    "name": "Hotel Magdalener Hof",
    "lat": "46.4981727",
    "lng": "11.3736147",
    "prize-de": "Abendessen",
    "prize-it": "Cena"
  },
  {
    "name": "Gioielleria Bonaldi",
    "lat": "46.4918986",
    "lng": "11.3313252",
    "prize-de": "Halskette in Bronze Marke Rebecca",
    "prize-it": "Collier in bronzo rodiato Marca Rebecca "
  },
  {
    "name": "Schmid & von Bosio",
    "lat": "46.4994823",
    "lng": "11.3510304",
    "prize-de": "Cubo 925 argento Armand",
    "prize-it": "Cubo 925 argento Armand"
  },
  {
    "name": "Schmid & von Bosio",
    "lat": "46.4994823",
    "lng": "11.3510304",
    "prize-de": "Cubo 925 argento Armand",
    "prize-it": "Cubo 925 argento Armand"
  },
  {
    "name": "Schmid & von Bosio",
    "lat": "46.4994823",
    "lng": "11.3510304",
    "prize-de": "Cubo 925 argento Armand",
    "prize-it": "Cubo 925 argento Armand"
  },
  {
    "name": "Schmid & von Bosio",
    "lat": "46.4994823",
    "lng": "11.3510304",
    "prize-de": "Cubo 925 argento Armand",
    "prize-it": "Cubo 925 argento Armand"
  },
  {
    "name": "Schmid & von Bosio",
    "lat": "46.4994823",
    "lng": "11.3510304",
    "prize-de": "Cubo 925 argento Armand",
    "prize-it": "Cubo 925 argento Armand"
  },
  {
    "name": "Schmid & von Bosio",
    "lat": "46.4994823",
    "lng": "11.3510304",
    "prize-de": "Cubo 925 argento Armand",
    "prize-it": "Cubo 925 argento Armand"
  },
  {
    "name": "Schmid & von Bosio",
    "lat": "46.4994823",
    "lng": "11.3510304",
    "prize-de": "Cubo 925 argento Armand",
    "prize-it": "Cubo 925 argento Armand"
  },
  {
    "name": "Schmid & von Bosio",
    "lat": "46.4994823",
    "lng": "11.3510304",
    "prize-de": "Cubo 925 argento Armand",
    "prize-it": "Cubo 925 argento Armand"
  },
  {
    "name": "Schmid & von Bosio",
    "lat": "46.4994823",
    "lng": "11.3510304",
    "prize-de": "Cubo 925 argento Armand",
    "prize-it": "Cubo 925 argento Armand"
  },
  {
    "name": "Schmid & von Bosio",
    "lat": "46.4994823",
    "lng": "11.3510304",
    "prize-de": "Cubo 925 argento Armand",
    "prize-it": "Cubo 925 argento Armand"
  },
  {
    "name": "Schmid & von Bosio",
    "lat": "46.4994823",
    "lng": "11.3510304",
    "prize-de": "Cubo 925 argento Armand",
    "prize-it": "Cubo 925 argento Armand"
  },
  {
    "name": "Schmid & von Bosio",
    "lat": "46.4994823",
    "lng": "11.3510304",
    "prize-de": "Cubo 925 argento Armand",
    "prize-it": "Cubo 925 argento Armand"
  },
  {
    "name": "Schmid & von Bosio",
    "lat": "46.4994823",
    "lng": "11.3510304",
    "prize-de": "Cubo 925 argento Armand",
    "prize-it": "Cubo 925 argento Armand"
  },
  {
    "name": "Schmid & von Bosio",
    "lat": "46.4994823",
    "lng": "11.3510304",
    "prize-de": "Cubo 925 argento Armand",
    "prize-it": "Cubo 925 argento Armand"
  },
  {
    "name": "Schmid & von Bosio",
    "lat": "46.4994823",
    "lng": "11.3510304",
    "prize-de": "Cubo 925 argento Armand",
    "prize-it": "Cubo 925 argento Armand"
  },
  {
    "name": "Schmid & von Bosio",
    "lat": "46.4994823",
    "lng": "11.3510304",
    "prize-de": "Cubo 925 argento Armand",
    "prize-it": "Cubo 925 argento Armand"
  },
  {
    "name": "Schmid & von Bosio",
    "lat": "46.4994823",
    "lng": "11.3510304",
    "prize-de": "Cubo 925 argento Armand",
    "prize-it": "Cubo 925 argento Armand"
  },
  {
    "name": "Schmid & von Bosio",
    "lat": "46.4994823",
    "lng": "11.3510304",
    "prize-de": "Cubo 925 argento Armand",
    "prize-it": "Cubo 925 argento Armand"
  },
  {
    "name": "Schmid & von Bosio",
    "lat": "46.4994823",
    "lng": "11.3510304",
    "prize-de": "Cubo 925 argento Armand",
    "prize-it": "Cubo 925 argento Armand"
  },
  {
    "name": "Schmid & von Bosio",
    "lat": "46.4994823",
    "lng": "11.3510304",
    "prize-de": "Cubo 925 argento Armand",
    "prize-it": "Cubo 925 argento Armand"
  },
  {
    "name": "Rubatscher ",
    "lat": "46.499677",
    "lng": "11.3528288",
    "prize-de": "80 € Gutschein",
    "prize-it": "80 € Buono acquisto"
  },
  {
    "name": "Rubatscher ",
    "lat": "46.499677",
    "lng": "11.3528288",
    "prize-de": "80 € Gutschein",
    "prize-it": "80 € Buono acquisto"
  },
  {
    "name": "Rubatscher ",
    "lat": "46.499677",
    "lng": "11.3528288",
    "prize-de": "80 € Gutschein",
    "prize-it": "80 € Buono acquisto"
  },
  {
    "name": "Stiftung Haydn ",
    "lat": "46.495798",
    "lng": "11.3477361",
    "prize-de": "2 Eintrittskarten für die Opernvorstellung \"Carmen\" am 26.03.2022",
    "prize-it": "2 biglietti per lo spettacolo d'opera \"Carmen\" il 26.03.2022"
  },
  {
    "name": "Lady 900",
    "lat": "11.3335853",
    "lng": "11.3335853",
    "prize-de": "5 Friseurgutscheine",
    "prize-it": "Buono per 5 pieghe "
  },
  {
    "name": "Eccel Decorona ",
    "lat": "46.5001042",
    "lng": "11.3528633",
    "prize-de": "Bettwäsche",
    "prize-it": "Biancheria da letto + lenzuolo "
  },
  {
    "name": "Eccel Decorona ",
    "lat": "46.5001042",
    "lng": "11.3528633",
    "prize-de": "Bettwäsche",
    "prize-it": "Biancheria da letto + lenzuolo "
  },
  {
    "name": "Schmid & von Bosio",
    "lat": "46.4994823",
    "lng": "11.3510304",
    "prize-de": "Armband Silber 925 Herz und Perlen",
    "prize-it": "Bracciale in argento 925 Cuore/Perle "
  },
  {
    "name": "Schmid & von Bosio",
    "lat": "46.4994823",
    "lng": "11.3510304",
    "prize-de": "Armband Silber 925 Herz und Perlen",
    "prize-it": "Bracciale in argento 925 Cuore/Perle "
  },
  {
    "name": "Schmid & von Bosio",
    "lat": "46.4994823",
    "lng": "11.3510304",
    "prize-de": "Armband Silber 925 Herz und Perlen",
    "prize-it": "Bracciale in argento 925 Cuore/Perle "
  },
  {
    "name": "Schmid & von Bosio",
    "lat": "46.4994823",
    "lng": "11.3510304",
    "prize-de": "Armband Silber 925 Herz und Perlen",
    "prize-it": "Bracciale in argento 925 Cuore/Perle "
  },
  {
    "name": "Schmid & von Bosio",
    "lat": "46.4994823",
    "lng": "11.3510304",
    "prize-de": "Armband Silber 925 Herz und Perlen",
    "prize-it": "Bracciale in argento 925 Cuore/Perle "
  },
  {
    "name": "Schmid & von Bosio",
    "lat": "46.4994823",
    "lng": "11.3510304",
    "prize-de": "Armband Silber 925 Herz und Perlen",
    "prize-it": "Bracciale in argento 925 Cuore/Perle "
  },
  {
    "name": "Schmid & von Bosio",
    "lat": "46.4994823",
    "lng": "11.3510304",
    "prize-de": "Armband Silber 925 Herz und Perlen",
    "prize-it": "Bracciale in argento 925 Cuore/Perle "
  },
  {
    "name": "Schmid & von Bosio",
    "lat": "46.4994823",
    "lng": "11.3510304",
    "prize-de": "Armband Silber 925 Herz und Perlen",
    "prize-it": "Bracciale in argento 925 Cuore/Perle "
  },
  {
    "name": "Schmid & von Bosio",
    "lat": "46.4994823",
    "lng": "11.3510304",
    "prize-de": "Armband Silber 925 Herz und Perlen",
    "prize-it": "Bracciale in argento 925 Cuore/Perle "
  },
  {
    "name": "Schmid & von Bosio",
    "lat": "46.4994823",
    "lng": "11.3510304",
    "prize-de": "Armband Silber 925 Herz und Perlen",
    "prize-it": "Bracciale in argento 925 Cuore/Perle "
  },
  {
    "name": "Schmid & von Bosio",
    "lat": "46.4994823",
    "lng": "11.3510304",
    "prize-de": "Armband Silber 925 Herz und Perlen",
    "prize-it": "Bracciale in argento 925 Cuore/Perle "
  },
  {
    "name": "Schmid & von Bosio",
    "lat": "46.4994823",
    "lng": "11.3510304",
    "prize-de": "Armband Silber 925 Herz und Perlen",
    "prize-it": "Bracciale in argento 925 Cuore/Perle "
  },
  {
    "name": "Schmid & von Bosio",
    "lat": "46.4994823",
    "lng": "11.3510304",
    "prize-de": "Armband Silber 925 Herz und Perlen",
    "prize-it": "Bracciale in argento 925 Cuore/Perle "
  },
  {
    "name": "Schmid & von Bosio",
    "lat": "46.4994823",
    "lng": "11.3510304",
    "prize-de": "Armband Silber 925 Herz und Perlen",
    "prize-it": "Bracciale in argento 925 Cuore/Perle "
  },
  {
    "name": "Schmid & von Bosio",
    "lat": "46.4994823",
    "lng": "11.3510304",
    "prize-de": "Armband Silber 925 Herz und Perlen",
    "prize-it": "Bracciale in argento 925 Cuore/Perle "
  },
  {
    "name": "Schmid & von Bosio",
    "lat": "46.4994823",
    "lng": "11.3510304",
    "prize-de": "Armband Silber 925 Herz und Perlen",
    "prize-it": "Bracciale in argento 925 Cuore/Perle "
  },
  {
    "name": "Schmid & von Bosio",
    "lat": "46.4994823",
    "lng": "11.3510304",
    "prize-de": "Armband Silber 925 Herz und Perlen",
    "prize-it": "Bracciale in argento 925 Cuore/Perle "
  },
  {
    "name": "Schmid & von Bosio",
    "lat": "46.4994823",
    "lng": "11.3510304",
    "prize-de": "Armband Silber 925 Herz und Perlen",
    "prize-it": "Bracciale in argento 925 Cuore/Perle "
  },
  {
    "name": "Schmid & von Bosio",
    "lat": "46.4994823",
    "lng": "11.3510304",
    "prize-de": "Armband Silber 925 Herz und Perlen",
    "prize-it": "Bracciale in argento 925 Cuore/Perle "
  },
  {
    "name": "Schmid & von Bosio",
    "lat": "46.4994823",
    "lng": "11.3510304",
    "prize-de": "Armband Silber 925 Herz und Perlen",
    "prize-it": "Bracciale in argento 925 Cuore/Perle "
  },
  {
    "name": "Termoservice ",
    "lat": "46.4857338",
    "lng": "11.3198161",
    "prize-de": "Gutschein für Wartung Boiler \"Riello\"",
    "prize-it": "Buono per manutenzione caldaia murale \"Riello\""
  },
  {
    "name": "Termoservice ",
    "lat": "46.4857338",
    "lng": "11.3198161",
    "prize-de": "Gutschein für Wartung Boiler \"Riello\"",
    "prize-it": "Buono per manutenzione caldaia murale \"Riello\""
  },
  {
    "name": "Grifoncino ",
    "lat": "46.4983367",
    "lng": "11.3534654",
    "prize-de": "Gutschein für 2 Personen Grifoncino",
    "prize-it": "Buono  per 2 persone al Grifoncino"
  },
  {
    "name": "Kiki Bakery Lab",
    "lat": "46.5006261",
    "lng": "11.3544916",
    "prize-de": "Kuchen für 12 Personen",
    "prize-it": " torta x 12 persone "
  },
  {
    "name": "Grüne Import Paganella ",
    "lat": "46.47404",
    "lng": "11.324486",
    "prize-de": "Slokker Sonnenbrille",
    "prize-it": "Slokker occhiali da sole siusi "
  },
  {
    "name": "Hopfen&co",
    "lat": "46.4992914",
    "lng": "11.3503616",
    "prize-de": "Degustationsmenü für 2 Personen",
    "prize-it": "Menu degustazione x2 persone "
  },
  {
    "name": "Hopfen&co",
    "lat": "46.4992914",
    "lng": "11.3503616",
    "prize-de": "Degustationsmenü für 2 Personen",
    "prize-it": "Menu degustazione x2 persone "
  },
  {
    "name": "Hopfen&co",
    "lat": "46.4992914",
    "lng": "11.3503616",
    "prize-de": "Degustationsmenü für 2 Personen",
    "prize-it": "Menu degustazione x2 persone "
  },
  {
    "name": "Stiftung Museion",
    "lat": "46.4973305",
    "lng": "11.3462041",
    "prize-de": "Museumsführung mit Direktor Van der Heide für 2 Personen",
    "prize-it": "Visita guidata con il direttore del Museion Van der Heide per 2 persone (60 minuti) "
  },
  {
    "name": "Estetica di Lu",
    "lat": "46.492034",
    "lng": "11.3310545",
    "prize-de": "Hot Stone Massage",
    "prize-it": "Massaggio hot stone pietre calde"
  },
  {
    "name": "Stiftung Museion",
    "lat": "46.4973305",
    "lng": "11.3462041",
    "prize-de": "Abo für 1 Jahr für 2 Personen",
    "prize-it": "Abbonamento annuale entrata al museo per due persone"
  },
  {
    "name": "THUN ",
    "lat": "46.4718255",
    "lng": "11.3229903",
    "prize-de": "6 Tassen Jungle",
    "prize-it": "6 Tazzine Jungle"
  },
  {
    "name": "THUN",
    "lat": "46.4718255",
    "lng": "11.3229903",
    "prize-de": "6 Tassen Fiesta ",
    "prize-it": "6 Tazzine fiesta"
  },
  {
    "name": "Twenty ",
    "lat": "46.486498",
    "lng": "11.334158",
    "prize-de": "Twenty giftcard",
    "prize-it": "Twenty giftcard"
  },
  {
    "name": "Twenty ",
    "lat": "46.486498",
    "lng": "11.334158",
    "prize-de": "Twenty giftcard",
    "prize-it": "Twenty giftcard"
  },
  {
    "name": "Twenty ",
    "lat": "46.486498",
    "lng": "11.334158",
    "prize-de": "Twenty giftcard",
    "prize-it": "Twenty giftcard"
  },
  {
    "name": "Twenty ",
    "lat": "46.486498",
    "lng": "11.334158",
    "prize-de": "Twenty giftcard",
    "prize-it": "Twenty giftcard"
  },
  {
    "name": "Twenty ",
    "lat": "46.486498",
    "lng": "11.334158",
    "prize-de": "Twenty giftcard",
    "prize-it": "Twenty giftcard"
  },
  {
    "name": "Intimissimi via Museo/Museumstr.",
    "lat": "46.4995904",
    "lng": "11.3500155",
    "prize-de": "50 € Intimissimi Gutschein",
    "prize-it": "Buono negozio intimissimi  "
  },
  {
    "name": "Bergmilch Südtirol / Mila",
    "lat": "46.4937915",
    "lng": "11.3795414",
    "prize-de": "50 € Gutschein",
    "prize-it": "50 € Buono acquisto"
  },
  {
    "name": "Bergmilch Südtirol / Mila",
    "lat": "46.4937915",
    "lng": "11.3795414",
    "prize-de": "50 € Gutschein",
    "prize-it": "50 € Buono acquisto"
  },
  {
    "name": "Bergmilch Südtirol / Mila",
    "lat": "46.4937915",
    "lng": "11.3795414",
    "prize-de": "50 € Gutschein",
    "prize-it": "50 € Buono acquisto"
  },
  {
    "name": "Bergmilch Südtirol / Mila",
    "lat": "46.4937915",
    "lng": "11.3795414",
    "prize-de": "50 € Gutschein",
    "prize-it": "50 € Buono acquisto"
  },
  {
    "name": "Zari Bolzano",
    "lat": "46.4991121",
    "lng": "11.3546622",
    "prize-de": "50 € Gutschein",
    "prize-it": "50 € Buono acquisto"
  },
  {
    "name": "Bricocenter Straudi ",
    "lat": "46.4933322",
    "lng": "11.3566926",
    "prize-de": "50 € Gutschein",
    "prize-it": "50 € Buono acquisto"
  },
  {
    "name": "Bricocenter Straudi ",
    "lat": "46.4933322",
    "lng": "11.3566926",
    "prize-de": "50 € Gutschein",
    "prize-it": "50 € Buono acquisto"
  },
  {
    "name": "Bricocenter Straudi ",
    "lat": "46.4933322",
    "lng": "11.3566926",
    "prize-de": "50 € Gutschein",
    "prize-it": "50 € Buono acquisto"
  },
  {
    "name": "Bricocenter Straudi ",
    "lat": "46.4933322",
    "lng": "11.3566926",
    "prize-de": "50 € Gutschein",
    "prize-it": "50 € Buono acquisto"
  },
  {
    "name": "Bricocenter Straudi ",
    "lat": "46.4933322",
    "lng": "11.3566926",
    "prize-de": "50 € Gutschein",
    "prize-it": "50 € Buono acquisto"
  },
  {
    "name": "Intimissimi via Museo/Museumstr.",
    "lat": "46.4995904",
    "lng": "11.3500155",
    "prize-de": "50 € Intimissimi Gutschein",
    "prize-it": "Buono intimissimi  del valore di 50€"
  },
  {
    "name": "Farmacie Bonvicini ",
    "lat": "46.4917354",
    "lng": "11.3288338",
    "prize-de": "50 € Gutschein auf kosmetische Produkte",
    "prize-it": "50 € Buono acquisto prodotti cosmetici"
  },
  {
    "name": "Farmacie Bonvicini ",
    "lat": "46.4917354",
    "lng": "11.3288338",
    "prize-de": "50 € Gutschein auf kosmetische Produkte",
    "prize-it": "50 € Buono acquisto prodotti cosmetici"
  },
  {
    "name": "Farmacie Bonvicini ",
    "lat": "46.4917354",
    "lng": "11.3288338",
    "prize-de": "50 € Gutschein auf kosmetische Produkte",
    "prize-it": "50 € Buono acquisto prodotti cosmetici"
  },
  {
    "name": "Farmacie Bonvicini ",
    "lat": "46.4917354",
    "lng": "11.3288338",
    "prize-de": "50 € Gutschein auf kosmetische Produkte",
    "prize-it": "50 € Buono acquisto prodotti cosmetici"
  },
  {
    "name": "Farmacie Bonvicini ",
    "lat": "46.4917354",
    "lng": "11.3288338",
    "prize-de": "50 € Gutschein auf kosmetische Produkte",
    "prize-it": "50 € Buono acquisto prodotti cosmetici"
  },
  {
    "name": "Rest. Nussbaumer",
    "lat": "46.500794",
    "lng": "11.354747",
    "prize-de": "Abendessen für 2 Personen",
    "prize-it": "Cena per due persone"
  },
  {
    "name": "Stiftung Haydn ",
    "lat": "46.495798",
    "lng": "11.3477361",
    "prize-de": "2 Eintrittskarten für das Konzert- Haydn/Kent Nagano il 19.02.2022 ",
    "prize-it": "Biglietti per il concerto dell'Orchestra Haydn/Kent Nagano il 19.02.2022 x 2 persone"
  },
  {
    "name": "Restaurant Bamboo",
    "lat": "46.4966809",
    "lng": "11.351511",
    "prize-de": "50 € Gutschein Bamboo ",
    "prize-it": "50 € Buono Regalo Bamboo "
  },
  {
    "name": "Four Points Sheraton ",
    "lat": "46.4718501",
    "lng": "11.3226049",
    "prize-de": "Eintritt fü 2 Personen im 7° Heaven Beauty&Wellness",
    "prize-it": " ingresso per 2 persone al nostro 7° Cielo Beauty&Wellness"
  },
  {
    "name": "Four Points Sheraton ",
    "lat": "46.4718501",
    "lng": "11.3226049",
    "prize-de": "Eintritt fü 2 Personen im 7° Heaven Beauty&Wellness",
    "prize-it": " ingresso per 2 persone al nostro 7° Cielo Beauty&Wellness"
  },
  {
    "name": "THUN",
    "lat": "46.4718255",
    "lng": "11.3229903",
    "prize-de": "Nelly Engel",
    "prize-it": "Angelo Nelly"
  },
  {
    "name": "Weingut Eberlehof",
    "lat": "46.5020374",
    "lng": "11.3686768",
    "prize-de": "Weindegustation für 2 Personen",
    "prize-it": "Voucher per una degustazione di vini per due persone "
  },
  {
    "name": "Weingut Eberlehof",
    "lat": "46.5020374",
    "lng": "11.3686768",
    "prize-de": "Weindegustation für 2 Personen",
    "prize-it": "Voucher per una degustazione di vini per due persone "
  },
  {
    "name": "Termoservice ",
    "lat": "46.4857338",
    "lng": "11.3198161",
    "prize-de": "Wartungsgutschein",
    "prize-it": "Buono per manutenzione scaldabagno \"Riello\" (q.2) "
  },
  {
    "name": "Termoservice ",
    "lat": "46.4857338",
    "lng": "11.3198161",
    "prize-de": "Wartungsgutschein",
    "prize-it": "Buono per manutenzione scaldabagno \"Riello\" (q.2) "
  },
  {
    "name": "Brasolin Auto ",
    "lat": "46.4686586",
    "lng": "11.3296552",
    "prize-de": "Gutschein für einen Ölwechsel",
    "prize-it": "Buono cambio olio"
  },
  {
    "name": "Brasolin Auto ",
    "lat": "46.4686586",
    "lng": "11.3296552",
    "prize-de": "Gutschein für einen Ölwechsel",
    "prize-it": "Buono cambio olio"
  },
  {
    "name": "Brasolin Auto ",
    "lat": "46.4686586",
    "lng": "11.3296552",
    "prize-de": "Gutschein für einen Ölwechsel",
    "prize-it": "Buono cambio olio"
  },
  {
    "name": "Brasolin Auto ",
    "lat": "46.4686586",
    "lng": "11.3296552",
    "prize-de": "Gutschein für einen Ölwechsel",
    "prize-it": "Buono cambio olio"
  },
  {
    "name": "Brasolin Auto ",
    "lat": "46.4686586",
    "lng": "11.3296552",
    "prize-de": "Gutschein für einen Ölwechsel",
    "prize-it": "Buono cambio olio"
  },
  {
    "name": "Loacker cafè",
    "lat": "46.4980283",
    "lng": "11.3521093",
    "prize-de": "Geschenkskorb",
    "prize-it": "Cestino del divertimento"
  },
  {
    "name": "Loacker cafè",
    "lat": "46.4980283",
    "lng": "11.3521093",
    "prize-de": "Geschenkskorb",
    "prize-it": "Cestino del divertimento"
  },
  {
    "name": "Loacker cafè",
    "lat": "46.4980283",
    "lng": "11.3521093",
    "prize-de": "Geschenkskorb",
    "prize-it": "Cestino del divertimento"
  },
  {
    "name": "Loacker cafè",
    "lat": "46.4980283",
    "lng": "11.3521093",
    "prize-de": "Geschenkskorb",
    "prize-it": "Cestino del divertimento"
  },
  {
    "name": "Loacker cafè",
    "lat": "46.4980283",
    "lng": "11.3521093",
    "prize-de": "Geschenkskorb",
    "prize-it": "Cestino del divertimento"
  },
  {
    "name": "THUN ",
    "lat": "46.4718255",
    "lng": "11.3229903",
    "prize-de": "Glocke",
    "prize-it": "Campanella "
  },
  {
    "name": "Estetica di Lu",
    "lat": "46.492034",
    "lng": "11.3310545",
    "prize-de": "Pedicure Spa",
    "prize-it": "Pedicure Spa"
  },
  {
    "name": "Grifoncino",
    "lat": "46.4983367",
    "lng": "11.3534654",
    "prize-de": "Gutschein für 2 Cocktails",
    "prize-it": "Buono acquisto per due cocktail"
  },
  {
    "name": "Vereinigte Bühnen Bozen",
    "lat": "46.4955302",
    "lng": "11.3512453",
    "prize-de": "2 Theatergutscheine",
    "prize-it": "Buono per il teatro 2 Persone"
  },
  {
    "name": "Vereinigte Bühnen Bozen",
    "lat": "46.4955302",
    "lng": "11.3512453",
    "prize-de": "2 Theatergutscheine",
    "prize-it": "Buono per il teatro 2 Persone"
  },
  {
    "name": "Vereinigte Bühnen Bozen",
    "lat": "46.4955302",
    "lng": "11.3512453",
    "prize-de": "2 Theatergutscheine",
    "prize-it": "Buono per il teatro 2 Persone"
  },
  {
    "name": "Vereinigte Bühnen Bozen",
    "lat": "46.4955302",
    "lng": "11.3512453",
    "prize-de": "2 Theatergutscheine",
    "prize-it": "Buono per il teatro 2 Persone"
  },
  {
    "name": "Vereinigte Bühnen Bozen",
    "lat": "46.4955302",
    "lng": "11.3512453",
    "prize-de": "2 Theatergutscheine",
    "prize-it": "Buono per il teatro 2 Persone"
  },
  {
    "name": "Vereinigte Bühnen Bozen",
    "lat": "46.4955302",
    "lng": "11.3512453",
    "prize-de": "2 Theatergutscheine",
    "prize-it": "Buono per il teatro 2 Persone"
  },
  {
    "name": "Grüne Import Paganella ",
    "lat": "46.47404",
    "lng": "11,324,486",
    "prize-de": "Slokker Mütze",
    "prize-it": "Slokker cappellino megan "
  },
  {
    "name": "Estetica di Lu",
    "lat": "46.492034",
    "lng": "11.3310545",
    "prize-de": "Manicure Semipermanent",
    "prize-it": "Manicure semipermanente "
  },
  {
    "name": "Zari Bolzano",
    "lat": "46.4991121",
    "lng": "11.3546622",
    "prize-de": "30 € Gutschein",
    "prize-it": "Buono acquisto"
  },
  {
    "name": "Corte - Bar & Bistro",
    "lat": "46.4981663",
    "lng": "11.3521604",
    "prize-de": "Mittagessen für 2 Personen",
    "prize-it": "Pranzo x2 persone "
  },
  {
    "name": "Mercerie Fuganti",
    "lat": "46.4905933",
    "lng": "11.3359417",
    "prize-de": "500 gr Wolle",
    "prize-it": "500 gr di lana "
  },
  {
    "name": "Mercerie Fuganti",
    "lat": "46.4905933",
    "lng": "11.3359417",
    "prize-de": "500 gr Wolle",
    "prize-it": "500 gr di lana "
  },
  {
    "name": "Mercerie Fuganti",
    "lat": "46.4905933",
    "lng": "11.3359417",
    "prize-de": "500 gr Wolle",
    "prize-it": "500 gr di lana "
  },
  {
    "name": "Mercerie Fuganti",
    "lat": "46.4905933",
    "lng": "11.3359417",
    "prize-de": "500 gr Wolle",
    "prize-it": "500 gr di lana "
  },
  {
    "name": "Mercerie Fuganti",
    "lat": "46.4905933",
    "lng": "11.3359417",
    "prize-de": "500 gr Wolle",
    "prize-it": "500 gr di lana "
  },
  {
    "name": "Mercerie Fuganti",
    "lat": "46.4905933",
    "lng": "11.3359417",
    "prize-de": "500 gr Wolle",
    "prize-it": "500 gr di lana "
  },
  {
    "name": "Mercerie Fuganti",
    "lat": "46.4905933",
    "lng": "11.3359417",
    "prize-de": "500 gr Wolle",
    "prize-it": "500 gr di lana "
  },
  {
    "name": "Mercerie Fuganti",
    "lat": "46.4905933",
    "lng": "11.3359417",
    "prize-de": "500 gr Wolle",
    "prize-it": "500 gr di lana "
  },
  {
    "name": "Mercerie Fuganti",
    "lat": "46.4905933",
    "lng": "11.3359417",
    "prize-de": "500 gr Wolle",
    "prize-it": "500 gr di lana "
  },
  {
    "name": "Mercerie Fuganti",
    "lat": "46.4905933",
    "lng": "11.3359417",
    "prize-de": "500 gr Wolle",
    "prize-it": "500 gr di lana "
  },
  {
    "name": "Schmid & von Bosio",
    "lat": "46.4994823",
    "lng": "11.3510304",
    "prize-de": "Ohrringe ",
    "prize-it": "Orecchini coccinella 925 argento"
  },
  {
    "name": "Schmid & von Bosio",
    "lat": "46.4994823",
    "lng": "11.3510304",
    "prize-de": "Ohrringe",
    "prize-it": "Orecchini coccinella 925 argento"
  },
  {
    "name": "Schmid & von Bosio",
    "lat": "46.4994823",
    "lng": "11.3510304",
    "prize-de": "Ohrringe",
    "prize-it": "Orecchini coccinella 925 argento"
  },
  {
    "name": "Schmid & von Bosio",
    "lat": "46.4994823",
    "lng": "11.3510304",
    "prize-de": "Ohrringe",
    "prize-it": "Orecchini coccinella 925 argento"
  },
  {
    "name": "Schmid & von Bosio",
    "lat": "46.4994823",
    "lng": "11.3510304",
    "prize-de": "Ohrringe",
    "prize-it": "Orecchini coccinella 925 argento"
  },
  {
    "name": "Schmid & von Bosio",
    "lat": "46.4994823",
    "lng": "11.3510304",
    "prize-de": "Ohrringe",
    "prize-it": "Orecchini coccinella 925 argento"
  },
  {
    "name": "Schmid & von Bosio",
    "lat": "46.4994823",
    "lng": "11.3510304",
    "prize-de": "Ohrringe",
    "prize-it": "Orecchini coccinella 925 argento"
  },
  {
    "name": "Schmid & von Bosio",
    "lat": "46.4994823",
    "lng": "11.3510304",
    "prize-de": "Ohrringe",
    "prize-it": "Orecchini coccinella 925 argento"
  },
  {
    "name": "Schmid & von Bosio",
    "lat": "46.4994823",
    "lng": "11.3510304",
    "prize-de": "Ohrringe",
    "prize-it": "Orecchini coccinella 925 argento"
  },
  {
    "name": "Schmid & von Bosio",
    "lat": "46.4994823",
    "lng": "11.3510304",
    "prize-de": "Ohrringe",
    "prize-it": "Orecchini coccinella 925 argento"
  },
  {
    "name": "Schmid & von Bosio",
    "lat": "46.4994823",
    "lng": "11.3510304",
    "prize-de": "Ohrringe",
    "prize-it": "Orecchini coccinella 925 argento"
  },
  {
    "name": "Schmid & von Bosio",
    "lat": "46.4994823",
    "lng": "11.3510304",
    "prize-de": "Ohrringe",
    "prize-it": "Orecchini coccinella 925 argento"
  },
  {
    "name": "Schmid & von Bosio",
    "lat": "46.4994823",
    "lng": "11.3510304",
    "prize-de": "Ohrringe",
    "prize-it": "Orecchini coccinella 925 argento"
  },
  {
    "name": "Schmid & von Bosio",
    "lat": "46.4994823",
    "lng": "11.3510304",
    "prize-de": "Ohrringe",
    "prize-it": "Orecchini coccinella 925 argento"
  },
  {
    "name": "Schmid & von Bosio",
    "lat": "46.4994823",
    "lng": "11.3510304",
    "prize-de": "Ohrringe",
    "prize-it": "Orecchini coccinella 925 argento"
  },
  {
    "name": "Schmid & von Bosio",
    "lat": "46.4994823",
    "lng": "11.3510304",
    "prize-de": "Ohrringe",
    "prize-it": "Orecchini coccinella 925 argento"
  },
  {
    "name": "Schmid & von Bosio",
    "lat": "46.4994823",
    "lng": "11.3510304",
    "prize-de": "Ohrringe",
    "prize-it": "Orecchini coccinella 925 argento"
  },
  {
    "name": "Schmid & von Bosio",
    "lat": "46.4994823",
    "lng": "11.3510304",
    "prize-de": "Ohrringe",
    "prize-it": "Orecchini coccinella 925 argento"
  },
  {
    "name": "Schmid & von Bosio",
    "lat": "46.4994823",
    "lng": "11.3510304",
    "prize-de": "Ohrringe",
    "prize-it": "Orecchini coccinella 925 argento"
  },
  {
    "name": "Schmid & von Bosio",
    "lat": "46.4994823",
    "lng": "11.3510304",
    "prize-de": "Ohrringe",
    "prize-it": "Orecchini coccinella 925 argento"
  },
  {
    "name": "Enoteca Gandolfi ",
    "lat": "46.4937556",
    "lng": "11.3099532",
    "prize-de": "Degustation für 2 Personen",
    "prize-it": "Serata degustazione per 2 persone"
  },
  {
    "name": "Enoteca Gandolfi ",
    "lat": "46.4937556",
    "lng": "113099532",
    "prize-de": "Degustation für 2 Personen",
    "prize-it": "Serata degustazione per 2 persone"
  },
  {
    "name": "Enoteca Gandolfi ",
    "lat": "46.4937556",
    "lng": "11.3099532",
    "prize-de": "Degustation für 2 Personen",
    "prize-it": "Serata degustazione per 2 persone"
  },
  {
    "name": "Mercerie Fuganti ",
    "lat": "46.4905933",
    "lng": "11.3359417",
    "prize-de": "Männer T-shirt",
    "prize-it": "T-shirt intimo uomo "
  },
  {
    "name": "Mercerie Fuganti ",
    "lat": "46.4905933",
    "lng": "11.3359417",
    "prize-de": "Männer T-shirt",
    "prize-it": "T-shirt intimo uomo "
  },
  {
    "name": "Mercerie Fuganti ",
    "lat": "46.4905933",
    "lng": "11.3359417",
    "prize-de": "Frauen Unterwäsche",
    "prize-it": "Canotta + 2 slip abbinati donna "
  },
  {
    "name": "Restaurant Bamboo",
    "lat": "46.4966809",
    "lng": "11.351511",
    "prize-de": "25 € Gutschein",
    "prize-it": "Buono Regalo Bamboo"
  },
  {
    "name": "Restaurant Bamboo",
    "lat": "46.4966809",
    "lng": "11.351511",
    "prize-de": "25 € Gutschein",
    "prize-it": "Buono Regalo Bamboo"
  },
  {
    "name": "Restaurant Bamboo",
    "lat": "46.4966809",
    "lng": "11.351511",
    "prize-de": "25 € Gutschein",
    "prize-it": "Buono Regalo Bamboo"
  },
  {
    "name": "Restaurant Bamboo",
    "lat": "46.4966809",
    "lng": "11.351511",
    "prize-de": "25 € Gutschein",
    "prize-it": "Buono Regalo Bamboo"
  },
  {
    "name": "Restaurant Bamboo",
    "lat": "46.4966809",
    "lng": "11.351511",
    "prize-de": "25 € Gutschein",
    "prize-it": "Buono Regalo Bamboo"
  },
  {
    "name": "Hopfen & Co",
    "lat": "46.4992914",
    "lng": "11.3503616",
    "prize-de": "Bierfass zu 5 l",
    "prize-it": "Fusto 5 lt.birra "
  },
  {
    "name": "Hopfen & Co",
    "lat": "46.4992914",
    "lng": "11.3503616",
    "prize-de": "Bierfass zu 5 l",
    "prize-it": "Fusto 5 lt.birra "
  },
  {
    "name": "Hopfen & Co",
    "lat": "46.4992914",
    "lng": "11.3503616",
    "prize-de": "Bierfass zu 5 l",
    "prize-it": "Fusto 5 lt.birra "
  },
  {
    "name": "Hopfen & Co",
    "lat": "46.4992914",
    "lng": "11.3503616",
    "prize-de": "Bierfass zu 5 l",
    "prize-it": "Fusto 5 lt.birra "
  },
  {
    "name": "Heinrichshof ",
    "lat": "46.5080924",
    "lng": "11.3525503",
    "prize-de": "2 Rotweinflaschen ",
    "prize-it": "Due bottiglie di vino rosso 0,75c "
  },
  {
    "name": "Heinrichshof ",
    "lat": "46.5080924",
    "lng": "11.3525503",
    "prize-de": "2 Rotweinflaschen ",
    "prize-it": "Due bottiglie di vino rosso 0,75c "
  },
  {
    "name": "Heinrichshof ",
    "lat": "46.5080924",
    "lng": "11.3525503",
    "prize-de": "2 Rotweinflaschen ",
    "prize-it": "Due bottiglie di vino rosso 0,75c "
  },
  {
    "name": "Heinrichshof ",
    "lat": "46.5080924",
    "lng": "11.3525503",
    "prize-de": "2 Rotweinflaschen ",
    "prize-it": "Due bottiglie di vino rosso 0,75c "
  },
  {
    "name": "Heinrichshof ",
    "lat": "46.5080924",
    "lng": "11.3525503",
    "prize-de": "2 Rotweinflaschen ",
    "prize-it": "Due bottiglie di vino rosso 0,75c "
  },
  {
    "name": "Heinrichshof ",
    "lat": "46.5080924",
    "lng": "11.3525503",
    "prize-de": "2 Rotweinflaschen ",
    "prize-it": "Due bottiglie di vino rosso 0,75c "
  },
  {
    "name": "Heinrichshof ",
    "lat": "46.5080924",
    "lng": "11.3525503",
    "prize-de": "2 Rotweinflaschen ",
    "prize-it": "Due bottiglie di vino rosso 0,75c "
  },
  {
    "name": "Heinrichshof ",
    "lat": "46.5080924",
    "lng": "11.3525503",
    "prize-de": "2 Rotweinflaschen ",
    "prize-it": "Due bottiglie di vino rosso 0,75c "
  },
  {
    "name": "Heinrichshof ",
    "lat": "46.5080924",
    "lng": "11.3525503",
    "prize-de": "2 Rotweinflaschen ",
    "prize-it": "Due bottiglie di vino rosso 0,75c "
  },
  {
    "name": "Heinrichshof ",
    "lat": "46.5080924",
    "lng": "11.3525503",
    "prize-de": "2 Rotweinflaschen ",
    "prize-it": "Due bottiglie di vino rosso 0,75c "
  },
  {
    "name": "Subway",
    "lat": "46.4974968",
    "lng": "11.3530455",
    "prize-de": "Gutschein für 4 Sandwich zu 30cm ",
    "prize-it": "Buono da 4 Sandwich da 30cm "
  },
  {
    "name": "Subway",
    "lat": "46.4974968",
    "lng": "11.3530455",
    "prize-de": "Gutschein für 4 Sandwich zu 30cm ",
    "prize-it": "Buono da 4 Sandwich da 30cm "
  },
  {
    "name": "Subway",
    "lat": "46.4974968",
    "lng": "11.3530455",
    "prize-de": "Gutschein für 4 Sandwich zu 30cm ",
    "prize-it": "Buono da 4 Sandwich da 30cm "
  },
  {
    "name": "Subway",
    "lat": "46.4974968",
    "lng": "11.3530455",
    "prize-de": "Gutschein für 4 Sandwich zu 30cm ",
    "prize-it": "Buono da 4 Sandwich da 30cm "
  },
  {
    "name": "Subway",
    "lat": "46.4974968",
    "lng": "11.3530455",
    "prize-de": "Gutschein für 4 Sandwich zu 30cm ",
    "prize-it": "Buono da 4 Sandwich da 30cm "
  },
  {
    "name": "Subway",
    "lat": "46.4974968",
    "lng": "11.3530455",
    "prize-de": "Gutschein für 4 Sandwich zu 30cm ",
    "prize-it": "Buono da 4 Sandwich da 30cm "
  },
  {
    "name": "Subway",
    "lat": "46.4974968",
    "lng": "11.3530455",
    "prize-de": "Gutschein für 4 Sandwich zu 30cm ",
    "prize-it": "Buono da 4 Sandwich da 30cm "
  },
  {
    "name": "Subway",
    "lat": "46.4974968",
    "lng": "11.3530455",
    "prize-de": "Gutschein für 4 Sandwich zu 30cm ",
    "prize-it": "Buono da 4 Sandwich da 30cm "
  },
  {
    "name": "Subway",
    "lat": "46.4974968",
    "lng": "11.3530455",
    "prize-de": "Gutschein für 4 Sandwich zu 30cm ",
    "prize-it": "Buono da 4 Sandwich da 30cm "
  },
  {
    "name": "Subway",
    "lat": "46.4974968",
    "lng": "11.3530455",
    "prize-de": "Gutschein für 4 Sandwich zu 30cm ",
    "prize-it": "Buono da 4 Sandwich da 30cm "
  },
  {
    "name": "Subway",
    "lat": "46.4974968",
    "lng": "11.3530455",
    "prize-de": "Gutschein für 4 Sandwich zu 30cm ",
    "prize-it": "Buono da 4 Sandwich da 30cm "
  },
  {
    "name": "Subway",
    "lat": "46.4974968",
    "lng": "11.3530455",
    "prize-de": "Gutschein für 4 Sandwich zu 30cm ",
    "prize-it": "Buono da 4 Sandwich da 30cm "
  },
  {
    "name": "Subway",
    "lat": "46.4974968",
    "lng": "11.3530455",
    "prize-de": "Gutschein für 4 Sandwich zu 30cm ",
    "prize-it": "Buono da 4 Sandwich da 30cm "
  },
  {
    "name": "Subway",
    "lat": "46.4974968",
    "lng": "11.3530455",
    "prize-de": "Gutschein für 4 Sandwich zu 30cm ",
    "prize-it": "Buono da 4 Sandwich da 30cm "
  },
  {
    "name": "Subway",
    "lat": "46.4974968",
    "lng": "11.3530455",
    "prize-de": "Gutschein für 4 Sandwich zu 30cm ",
    "prize-it": "Buono da 4 Sandwich da 30cm "
  },
  {
    "name": "Subway",
    "lat": "46.4974968",
    "lng": "11.3530455",
    "prize-de": "Gutschein für 4 Sandwich zu 30cm ",
    "prize-it": "Buono da 4 Sandwich da 30cm "
  },
  {
    "name": "Subway",
    "lat": "46.4974968",
    "lng": "11.3530455",
    "prize-de": "Gutschein für 4 Sandwich zu 30cm ",
    "prize-it": "Buono da 4 Sandwich da 30cm "
  },
  {
    "name": "Subway",
    "lat": "46.4974968",
    "lng": "11.3530455",
    "prize-de": "Gutschein für 4 Sandwich zu 30cm ",
    "prize-it": "Buono da 4 Sandwich da 30cm "
  },
  {
    "name": "Subway",
    "lat": "46.4974968",
    "lng": "11.3530455",
    "prize-de": "Gutschein für 4 Sandwich zu 30cm ",
    "prize-it": "Buono da 4 Sandwich da 30cm "
  },
  {
    "name": "Subway",
    "lat": "46.4974968",
    "lng": "11.3530455",
    "prize-de": "Gutschein für 4 Sandwich zu 30cm ",
    "prize-it": "Buono da 4 Sandwich da 30cm "
  },
  {
    "name": "Subway",
    "lat": "46.4974968",
    "lng": "11.3530455",
    "prize-de": "Gutschein für 4 Sandwich zu 30cm ",
    "prize-it": "Buono da 4 Sandwich da 30cm "
  },
  {
    "name": "Subway",
    "lat": "46.4974968",
    "lng": "11.3530455",
    "prize-de": "Gutschein für 4 Sandwich zu 30cm ",
    "prize-it": "Buono da 4 Sandwich da 30cm "
  },
  {
    "name": "Subway",
    "lat": "46.4974968",
    "lng": "11.3530455",
    "prize-de": "Gutschein für 4 Sandwich zu 30cm ",
    "prize-it": "Buono da 4 Sandwich da 30cm "
  },
  {
    "name": "Subway",
    "lat": "46.4974968",
    "lng": "11.3530455",
    "prize-de": "Gutschein für 4 Sandwich zu 30cm ",
    "prize-it": "Buono da 4 Sandwich da 30cm "
  },
  {
    "name": "Subway",
    "lat": "46.4974968",
    "lng": "11.3530455",
    "prize-de": "Gutschein für 4 Sandwich zu 30cm ",
    "prize-it": "Buono da 4 Sandwich da 30cm "
  },
  {
    "name": "Subway",
    "lat": "46.4974968",
    "lng": "11.3530455",
    "prize-de": "Gutschein für 4 Sandwich zu 30cm ",
    "prize-it": "Buono da 4 Sandwich da 30cm "
  },
  {
    "name": "Franziskaner Bäckerei ",
    "lat": "46.5005525",
    "lng": "11.3514659",
    "prize-de": "Frühstück",
    "prize-it": "Colazione"
  },
  {
    "name": "Franziskaner Bäckerei ",
    "lat": "46.5005525",
    "lng": "11.3514659",
    "prize-de": "Frühstück",
    "prize-it": "Colazione"
  },
  {
    "name": "Franziskaner Bäckerei ",
    "lat": "46.5005525",
    "lng": "11.3514659",
    "prize-de": "Frühstück",
    "prize-it": "Colazione"
  },
  {
    "name": "Franziskaner Bäckerei ",
    "lat": "46.5005525",
    "lng": "11.3514659",
    "prize-de": "Frühstück",
    "prize-it": "Colazione"
  },
  {
    "name": "Franziskaner Bäckerei ",
    "lat": "46.5005525",
    "lng": "11.3514659",
    "prize-de": "Frühstück",
    "prize-it": "Colazione"
  },
  {
    "name": "Kiki Bakery Lab",
    "lat": "46.5006261",
    "lng": "11.3544916",
    "prize-de": "Cupcakes ",
    "prize-it": "Cupcakes "
  },
  {
    "name": "Kiki Bakery Lab",
    "lat": "46.5006261",
    "lng": "11.3544916",
    "prize-de": "Cupcakes ",
    "prize-it": "Cupcakes "
  },
  {
    "name": "Kiki Bakery Lab",
    "lat": "46.5006261",
    "lng": "11.3544916",
    "prize-de": "Cupcakes ",
    "prize-it": "Cupcakes "
  },
  {
    "name": "Kiki Bakery Lab",
    "lat": "46.5006261",
    "lng": "11.3544916",
    "prize-de": "Cupcakes ",
    "prize-it": "Cupcakes "
  },
  {
    "name": "Kiki Bakery Lab",
    "lat": "46.5006261",
    "lng": "11.3544916",
    "prize-de": "Cupcakes ",
    "prize-it": "Cupcakes "
  },
  {
    "name": "Kiki Bakery Lab",
    "lat": "46.5006261",
    "lng": "11.3544916",
    "prize-de": "Cupcakes ",
    "prize-it": "Cupcakes "
  },
  {
    "name": "Weingut Eberlehof ",
    "lat": "46.5020374",
    "lng": "11.3686768",
    "prize-de": "Box mit 2  St.Magdalener Classico e Lagrein Riserva",
    "prize-it": "Box di 2  St.Magdalener Classico e Lagrein Riserva"
  },
  {
    "name": "Weingut Eberlehof ",
    "lat": "46.5020374",
    "lng": "11.3686768",
    "prize-de": "Box mit 2  St.Magdalener Classico e Lagrein Riserva",
    "prize-it": "Box di 2  St.Magdalener Classico e Lagrein Riserva"
  },
  {
    "name": "Weingut Eberlehof ",
    "lat": "46.5020374",
    "lng": "11.3686768",
    "prize-de": "Box mit 2  St.Magdalener Classico e Lagrein Riserva",
    "prize-it": "Box di 2  St.Magdalener Classico e Lagrein Riserva"
  },
  {
    "name": "Torgglhaus Al Torchio ",
    "lat": "46.4996963",
    "lng": "11.3501926",
    "prize-de": "2 Gourmet-Pizzas",
    "prize-it": "2 pizze gourmet "
  },
  {
    "name": "Torgglhaus Al Torchio ",
    "lat": "46.4996963",
    "lng": "11.3501926",
    "prize-de": "2 Gourmet-Pizzas",
    "prize-it": "2 pizze gourmet "
  },
  {
    "name": "Torgglhaus Al Torchio ",
    "lat": "46.4996963",
    "lng": "11.3501926",
    "prize-de": "2 Gourmet-Pizzas",
    "prize-it": "2 pizze gourmet "
  },
  {
    "name": "Torgglhaus Al Torchio ",
    "lat": "46.4996963",
    "lng": "11.3501926",
    "prize-de": "2 Gourmet-Pizzas",
    "prize-it": "2 pizze gourmet "
  },
  {
    "name": "Torgglhaus Al Torchio ",
    "lat": "46.4996963",
    "lng": "11.3501926",
    "prize-de": "2 Gourmet-Pizzas",
    "prize-it": "2 pizze gourmet "
  },
  {
    "name": "Torgglhaus Al Torchio ",
    "lat": "46.4996963",
    "lng": "11.3501926",
    "prize-de": "2 Gourmet-Pizzas",
    "prize-it": "2 pizze gourmet "
  },
  {
    "name": "Kiki Bakery Lab",
    "lat": "46.5006261",
    "lng": "11.3544916",
    "prize-de": "cookies ",
    "prize-it": "cookies "
  },
  {
    "name": "Kiki Bakery Lab",
    "lat": "46.5006261",
    "lng": "11.3544916",
    "prize-de": "cookies ",
    "prize-it": "cookies "
  },
  {
    "name": "Kiki Bakery Lab",
    "lat": "46.5006261",
    "lng": "11.3544916",
    "prize-de": "cookies ",
    "prize-it": "cookies "
  },
  {
    "name": "Kiki Bakery Lab",
    "lat": "46.5006261",
    "lng": "11.3544916",
    "prize-de": "cookies ",
    "prize-it": "cookies "
  },
  {
    "name": "Kiki Bakery Lab",
    "lat": "46.5006261",
    "lng": "11.3544916",
    "prize-de": "cookies ",
    "prize-it": "cookies "
  },
  {
    "name": "Kiki Bakery Lab",
    "lat": "46.5006261",
    "lng": "11.3544916",
    "prize-de": "cookies ",
    "prize-it": "cookies "
  },
  {
    "name": "Kiki Bakery Lab",
    "lat": "46.5006261",
    "lng": "11.3544916",
    "prize-de": "cookies ",
    "prize-it": "cookies "
  },
  {
    "name": "Kiki Bakery Lab",
    "lat": "46.5006261",
    "lng": "11.3544916",
    "prize-de": "cookies ",
    "prize-it": "cookies "
  },
  {
    "name": "Kiki Bakery Lab",
    "lat": "46.5006261",
    "lng": "11.3544916",
    "prize-de": "cookies ",
    "prize-it": "cookies "
  },
  {
    "name": "Kiki Bakery Lab",
    "lat": "46.5006261",
    "lng": "11.3544916",
    "prize-de": "cookies ",
    "prize-it": "cookies "
  },
  {
    "name": "Galleria Alessandro Casciaro",
    "lat": "46.4959159",
    "lng": "11.3501625",
    "prize-de": "Druck von Paul Flora ",
    "prize-it": "Stampa autografata di Paul Flora "
  },
  {
    "name": "Galleria Alessandro Casciaro",
    "lat": "46.4959159",
    "lng": "11.3501625",
    "prize-de": "Druck von Paul Flora ",
    "prize-it": "Stampa autografata di Paul Flora "
  },
  {
    "name": "Galleria Alessandro Casciaro",
    "lat": "46.4959159",
    "lng": "11.3501625",
    "prize-de": "Druck von Paul Flora ",
    "prize-it": "Stampa autografata di Paul Flora "
  },
  {
    "name": "Galleria Alessandro Casciaro",
    "lat": "46.4959159",
    "lng": "11.3501625",
    "prize-de": "Druck von Paul Flora ",
    "prize-it": "Stampa autografata di Paul Flora "
  },
  {
    "name": "Galleria Alessandro Casciaro",
    "lat": "46.4959159",
    "lng": "11.3501625",
    "prize-de": "Druck von Paul Flora ",
    "prize-it": "Stampa autografata di Paul Flora "
  },
  {
    "name": "THUN",
    "lat": "46.4718255",
    "lng": "11.3229903",
    "prize-de": "Weihnachtsmann",
    "prize-it": " Babbo Natale"
  },
  {
    "name": "Hopfen & Co",
    "lat": "46.4992914",
    "lng": "11.3503616",
    "prize-de": "2 l Bierflasche",
    "prize-it": "bottiglia birra da 2 lt."
  },
  {
    "name": "Hopfen & Co",
    "lat": "46.4992914",
    "lng": "11.3503616",
    "prize-de": "2 l Bierflasche",
    "prize-it": "bottiglia birra da 2 lt."
  },
  {
    "name": "Hopfen & Co",
    "lat": "46.4992914",
    "lng": "11.3503616",
    "prize-de": "2 l Bierflasche",
    "prize-it": "bottiglia birra da 2 lt."
  },
  {
    "name": "Hopfen & Co",
    "lat": "46.4992914",
    "lng": "11.3503616",
    "prize-de": "2 l Bierflasche",
    "prize-it": "bottiglia birra da 2 lt."
  },
  {
    "name": "Hopfen & Co",
    "lat": "46.4992914",
    "lng": "11.3503616",
    "prize-de": "2 l Bierflasche",
    "prize-it": "bottiglia birra da 2 lt."
  },
  {
    "name": "Loacker Café",
    "lat": "46.4980283",
    "lng": "11.3521093",
    "prize-de": "18 € Gutschein",
    "prize-it": "Buono acquisto "
  },
  {
    "name": "Loacker Café",
    "lat": "46.4980283",
    "lng": "11.3521093",
    "prize-de": "18 € Gutschein",
    "prize-it": "Buono acquisto "
  },
  {
    "name": "Loacker Café",
    "lat": "46.4980283",
    "lng": "11.3521093",
    "prize-de": "18 € Gutschein",
    "prize-it": "Buono acquisto "
  },
  {
    "name": "Loacker Café",
    "lat": "46.4980283",
    "lng": "11.3521093",
    "prize-de": "18 € Gutschein",
    "prize-it": "Buono acquisto "
  },
  {
    "name": "Loacker Café",
    "lat": "46.4980283",
    "lng": "11.3521093",
    "prize-de": "18 € Gutschein",
    "prize-it": "Buono acquisto "
  },
  {
    "name": "Mercerie Fuganti ",
    "lat": "46.4905933",
    "lng": "11.3359417",
    "prize-de": "Halskette ",
    "prize-it": "Collant donna - 18,00€"
  },
  {
    "name": "Azienda soggiorno e turismo Bolzano",
    "lat": "46.4953482",
    "lng": "11.3528027",
    "prize-de": "6 Weihnachtsmarkttassen ",
    "prize-it": "Conf. 6 tazzine mercatino "
  },
  {
    "name": "Azienda soggiorno e turismo Bolzano",
    "lat": "46.4953482",
    "lng": "11.3528027",
    "prize-de": "6 Weihnachtsmarkttassen ",
    "prize-it": "Conf. 6 tazzine mercatino "
  },
  {
    "name": "Azienda soggiorno e turismo Bolzano",
    "lat": "46.4953482",
    "lng": "11.3528027",
    "prize-de": "6 Weihnachtsmarkttassen ",
    "prize-it": "Conf. 6 tazzine mercatino "
  },
  {
    "name": "Azienda soggiorno e turismo Bolzano",
    "lat": "46.4953482",
    "lng": "11.3528027",
    "prize-de": "6 Weihnachtsmarkttassen ",
    "prize-it": "Conf. 6 tazzine mercatino "
  },
  {
    "name": "Azienda soggiorno e turismo Bolzano",
    "lat": "46.4953482",
    "lng": "11.3528027",
    "prize-de": "6 Weihnachtsmarkttassen ",
    "prize-it": "Conf. 6 tazzine mercatino "
  },
  {
    "name": "Azienda soggiorno e turismo Bolzano",
    "lat": "46.4953482",
    "lng": "11.3528027",
    "prize-de": "6 Weihnachtsmarkttassen ",
    "prize-it": "Conf. 6 tazzine mercatino "
  },
  {
    "name": "Azienda soggiorno e turismo Bolzano",
    "lat": "46.4953482",
    "lng": "11.3528027",
    "prize-de": "6 Weihnachtsmarkttassen ",
    "prize-it": "Conf. 6 tazzine mercatino "
  },
  {
    "name": "Azienda soggiorno e turismo Bolzano",
    "lat": "46.4953482",
    "lng": "11.3528027",
    "prize-de": "6 Weihnachtsmarkttassen ",
    "prize-it": "Conf. 6 tazzine mercatino "
  },
  {
    "name": "Azienda soggiorno e turismo Bolzano",
    "lat": "46.4953482",
    "lng": "11.3528027",
    "prize-de": "6 Weihnachtsmarkttassen ",
    "prize-it": "Conf. 6 tazzine mercatino "
  },
  {
    "name": "Azienda soggiorno e turismo Bolzano",
    "lat": "46.4953482",
    "lng": "11.3528027",
    "prize-de": "6 Weihnachtsmarkttassen ",
    "prize-it": "Conf. 6 tazzine mercatino "
  },
  {
    "name": "Azienda soggiorno e turismo Bolzano",
    "lat": "46.4953482",
    "lng": "11.3528027",
    "prize-de": "Stadtführung für 2 Personen",
    "prize-it": "Guida città 2 persone"
  },
  {
    "name": "Azienda soggiorno e turismo Bolzano",
    "lat": "46.4953482",
    "lng": "11.3528027",
    "prize-de": "Stadtführung für 2 Personen",
    "prize-it": "Guida città 2 persone"
  },
  {
    "name": "Azienda soggiorno e turismo Bolzano",
    "lat": "46.4953482",
    "lng": "11.3528027",
    "prize-de": "Stadtführung für 2 Personen",
    "prize-it": "Guida città 2 persone"
  },
  {
    "name": "Subway",
    "lat": "46.4974968",
    "lng": "11.3530455",
    "prize-de": "Gutschein für 4 Sandwich zu 15cm ",
    "prize-it": "Buono da 4 Sandwich da 15cm"
  },
  {
    "name": "Subway",
    "lat": "46.4974968",
    "lng": "11.3530455",
    "prize-de": "Gutschein für 4 Sandwich zu 15cm ",
    "prize-it": "Buono da 4 Sandwich da 15cm"
  },
  {
    "name": "Subway",
    "lat": "46.4974968",
    "lng": "11.3530455",
    "prize-de": "Gutschein für 4 Sandwich zu 15cm ",
    "prize-it": "Buono da 4 Sandwich da 15cm"
  },
  {
    "name": "Subway",
    "lat": "46.4974968",
    "lng": "11.3530455",
    "prize-de": "Gutschein für 4 Sandwich zu 15cm ",
    "prize-it": "Buono da 4 Sandwich da 15cm"
  },
  {
    "name": "Subway",
    "lat": "46.4974968",
    "lng": "11.3530455",
    "prize-de": "Gutschein für 4 Sandwich zu 15cm ",
    "prize-it": "Buono da 4 Sandwich da 15cm"
  },
  {
    "name": "Subway",
    "lat": "46.4974968",
    "lng": "11.3530455",
    "prize-de": "Gutschein für 4 Sandwich zu 15cm ",
    "prize-it": "Buono da 4 Sandwich da 15cm"
  },
  {
    "name": "Subway",
    "lat": "46.4974968",
    "lng": "11.3530455",
    "prize-de": "Gutschein für 4 Sandwich zu 15cm ",
    "prize-it": "Buono da 4 Sandwich da 15cm"
  },
  {
    "name": "Subway",
    "lat": "46.4974968",
    "lng": "11.3530455",
    "prize-de": "Gutschein für 4 Sandwich zu 15cm ",
    "prize-it": "Buono da 4 Sandwich da 15cm"
  },
  {
    "name": "Subway",
    "lat": "46.4974968",
    "lng": "11.3530455",
    "prize-de": "Gutschein für 4 Sandwich zu 15cm ",
    "prize-it": "Buono da 4 Sandwich da 15cm"
  },
  {
    "name": "Subway",
    "lat": "46.4974968",
    "lng": "11.3530455",
    "prize-de": "Gutschein für 4 Sandwich zu 15cm ",
    "prize-it": "Buono da 4 Sandwich da 15cm"
  },
  {
    "name": "Subway",
    "lat": "46.4974968",
    "lng": "11.3530455",
    "prize-de": "Gutschein für 4 Sandwich zu 15cm ",
    "prize-it": "Buono da 4 Sandwich da 15cm"
  },
  {
    "name": "Subway",
    "lat": "46.4974968",
    "lng": "11.3530455",
    "prize-de": "Gutschein für 4 Sandwich zu 15cm ",
    "prize-it": "Buono da 4 Sandwich da 15cm"
  },
  {
    "name": "Subway",
    "lat": "46.4974968",
    "lng": "11.3530455",
    "prize-de": "Gutschein für 4 Sandwich zu 15cm ",
    "prize-it": "Buono da 4 Sandwich da 15cm"
  },
  {
    "name": "Subway",
    "lat": "46.4974968",
    "lng": "11.3530455",
    "prize-de": "Gutschein für 4 Sandwich zu 15cm ",
    "prize-it": "Buono da 4 Sandwich da 15cm"
  },
  {
    "name": "Subway",
    "lat": "46.4974968",
    "lng": "11.3530455",
    "prize-de": "Gutschein für 4 Sandwich zu 15cm ",
    "prize-it": "Buono da 4 Sandwich da 15cm"
  },
  {
    "name": "Subway",
    "lat": "46.4974968",
    "lng": "11.3530455",
    "prize-de": "Gutschein für 4 Sandwich zu 15cm ",
    "prize-it": "Buono da 4 Sandwich da 15cm"
  },
  {
    "name": "Subway",
    "lat": "46.4974968",
    "lng": "11.3530455",
    "prize-de": "Gutschein für 4 Sandwich zu 15cm ",
    "prize-it": "Buono da 4 Sandwich da 15cm"
  },
  {
    "name": "Subway",
    "lat": "46.4974968",
    "lng": "11.3530455",
    "prize-de": "Gutschein für 4 Sandwich zu 15cm ",
    "prize-it": "Buono da 4 Sandwich da 15cm"
  },
  {
    "name": "Subway",
    "lat": "46.4974968",
    "lng": "11.3530455",
    "prize-de": "Gutschein für 4 Sandwich zu 15cm ",
    "prize-it": "Buono da 4 Sandwich da 15cm"
  },
  {
    "name": "Subway",
    "lat": "46.4974968",
    "lng": "11.3530455",
    "prize-de": "Gutschein für 4 Sandwich zu 15cm ",
    "prize-it": "Buono da 4 Sandwich da 15cm"
  },
  {
    "name": "Subway",
    "lat": "46.4974968",
    "lng": "11.3530455",
    "prize-de": "Gutschein für 4 Sandwich zu 15cm ",
    "prize-it": "Buono da 4 Sandwich da 15cm"
  },
  {
    "name": "Subway",
    "lat": "46.4974968",
    "lng": "11.3530455",
    "prize-de": "Gutschein für 4 Sandwich zu 15cm ",
    "prize-it": "Buono da 4 Sandwich da 15cm"
  },
  {
    "name": "Subway",
    "lat": "46.4974968",
    "lng": "11.3530455",
    "prize-de": "Gutschein für 4 Sandwich zu 15cm ",
    "prize-it": "Buono da 4 Sandwich da 15cm"
  },
  {
    "name": "Subway",
    "lat": "46.4974968",
    "lng": "11.3530455",
    "prize-de": "Gutschein für 4 Sandwich zu 15cm ",
    "prize-it": "Buono da 4 Sandwich da 15cm"
  },
  {
    "name": "Subway",
    "lat": "46.4974968",
    "lng": "11.3530455",
    "prize-de": "Gutschein für 4 Sandwich zu 15cm ",
    "prize-it": "Buono da 4 Sandwich da 15cm"
  },
  {
    "name": "Torgglhaus Al Torchio ",
    "lat": "46.4996963",
    "lng": "11.3501926",
    "prize-de": "1 Pizza ",
    "prize-it": "pizza classica"
  },
  {
    "name": "Torgglhaus Al Torchio ",
    "lat": "46.4996963",
    "lng": "11.3501926",
    "prize-de": "1 Pizza",
    "prize-it": "pizza classica"
  },
  {
    "name": "Torgglhaus Al Torchio ",
    "lat": "46.4996963",
    "lng": "11.3501926",
    "prize-de": "1 Pizza",
    "prize-it": "pizza classica"
  },
  {
    "name": "Torgglhaus Al Torchio ",
    "lat": "46.4996963",
    "lng": "11.3501926",
    "prize-de": "1 Pizza",
    "prize-it": "pizza classica"
  },
  {
    "name": "Torgglhaus Al Torchio ",
    "lat": "46.4996963",
    "lng": "11.3501926",
    "prize-de": "1 Pizza",
    "prize-it": "pizza classica"
  },
  {
    "name": "Torgglhaus Al Torchio ",
    "lat": "46.4996963",
    "lng": "11.3501926",
    "prize-de": "1 Pizza",
    "prize-it": "pizza classica"
  },
  {
    "name": "Torgglhaus Al Torchio ",
    "lat": "46.4996963",
    "lng": "11.3501926",
    "prize-de": "1 Pizza",
    "prize-it": "pizza classica"
  },
  {
    "name": "Torgglhaus Al Torchio ",
    "lat": "46.4996963",
    "lng": "11.3501926",
    "prize-de": "1 Pizza",
    "prize-it": "pizza classica"
  },
  {
    "name": "Torgglhaus Al Torchio ",
    "lat": "46.4996963",
    "lng": "11.3501926",
    "prize-de": "1 Pizza",
    "prize-it": "pizza classica"
  },
  {
    "name": "Torgglhaus Al Torchio ",
    "lat": "46.4996963",
    "lng": "11.3501926",
    "prize-de": "1 Pizza",
    "prize-it": "pizza classica"
  },
  {
    "name": "Corte - Bar & Bistro",
    "lat": "46.4981663",
    "lng": "11.3521604",
    "prize-de": "Aperitivo für 2 Personen",
    "prize-it": "Aperitivo per 2 persone "
  },
  {
    "name": "Torgglhaus Al Torchio ",
    "lat": "46.4996963",
    "lng": "11.3501926",
    "prize-de": "Aperitivo für 2 Personen",
    "prize-it": "Aperitivo x2 persone"
  },
  {
    "name": "Torgglhaus Al Torchio ",
    "lat": "46.4996963",
    "lng": "11.3501926",
    "prize-de": "Aperitivo für 2 Personen",
    "prize-it": "Aperitivo x2 persone"
  },
  {
    "name": "Torgglhaus Al Torchio ",
    "lat": "46.4996963",
    "lng": "11.3501926",
    "prize-de": "Aperitivo für 2 Personen",
    "prize-it": "Aperitivo x2 persone"
  },
  {
    "name": "Torgglhaus Al Torchio ",
    "lat": "46.4996963",
    "lng": "11.3501926",
    "prize-de": "Aperitivo für 2 Personen",
    "prize-it": "Aperitivo x2 persone"
  },
  {
    "name": "Torgglhaus Al Torchio ",
    "lat": "46.4996963",
    "lng": "11.3501926",
    "prize-de": "Aperitivo für 2 Personen",
    "prize-it": "Aperitivo x2 persone"
  },
  {
    "name": "Torgglhaus Al Torchio ",
    "lat": "46.4996963",
    "lng": "11.3501926",
    "prize-de": "Aperitivo für 2 Personen",
    "prize-it": "Aperitivo x2 persone"
  },
  {
    "name": "Torgglhaus Al Torchio ",
    "lat": "46.4996963",
    "lng": "11.3501926",
    "prize-de": "Aperitivo für 2 Personen",
    "prize-it": "Aperitivo x2 persone"
  },
  {
    "name": "Torgglhaus Al Torchio ",
    "lat": "46.4996963",
    "lng": "11.3501926",
    "prize-de": "Aperitivo für 2 Personen",
    "prize-it": "Aperitivo x2 persone"
  },
  {
    "name": "Torgglhaus Al Torchio ",
    "lat": "46.4996963",
    "lng": "11.3501926",
    "prize-de": "Aperitivo für 2 Personen",
    "prize-it": "Aperitivo x2 persone"
  },
  {
    "name": "Torgglhaus Al Torchio ",
    "lat": "46.4996963",
    "lng": "11.3501926",
    "prize-de": "Aperitivo für 2 Personen",
    "prize-it": "Aperitivo x2 persone"
  },
  {
    "name": "Franziskaner Bäckerei ",
    "lat": "46.5005525",
    "lng": "11.3514659",
    "prize-de": "Frühstück für 2 Personen",
    "prize-it": "Colazione per una persona"
  },
  {
    "name": "Franziskaner Bäckerei ",
    "lat": "46.5005525",
    "lng": "11.3514659",
    "prize-de": "Frühstück für 2 Personen",
    "prize-it": "Colazione per una persona"
  },
  {
    "name": "Franziskaner Bäckerei ",
    "lat": "46.5005525",
    "lng": "11.3514659",
    "prize-de": "Frühstück für 2 Personen",
    "prize-it": "Colazione per una persona"
  },
  {
    "name": "Franziskaner Bäckerei ",
    "lat": "46.5005525",
    "lng": "11.3514659",
    "prize-de": "Frühstück für 2 Personen",
    "prize-it": "Colazione per una persona"
  },
  {
    "name": "Franziskaner Bäckerei ",
    "lat": "46.5005525",
    "lng": "11.3514659",
    "prize-de": "Frühstück für 2 Personen",
    "prize-it": "Colazione per una persona"
  },
  {
    "name": "Franziskaner Bäckerei ",
    "lat": "46.5005525",
    "lng": "11.3514659",
    "prize-de": "Frühstück für 2 Personen",
    "prize-it": "Colazione per una persona"
  }
]
