[
  {
    "name": "Al Torchio ",
    "street": "Via museo 2/a",
    "lat": "46.4996963",
    "lng": "11.3501979",
    "website": "https://www.casaaltorchio.com/"
  },
  {
    "name": "Arts and Crafts (filiale 1)",
    "street": "Via del Macello 67/B",
    "lat": "46.4937956",
    "lng": "11.355643",
    "website": "http://www.artsandcrafts.it/"
  },
  {
    "name": "Azienda di soggiorno Bolzano",
    "street": "Via Alto Adige 60",
    "lat": "46.4953482",
    "lng": "11.352808",
    "website": "https://www.bolzano-bozen.it/it/"
  },
  {
    "name": "Azienda di soggiorno Bolzano (mercatino)",
    "street": "Mercatino di Natale Piazza Walther",
    "lat": "46.4877533",
    "lng": "11.3662133",
    "website": "https://www.bolzano-bozen.it/it/"
  },
  {
    "name": "B&R Service",
    "street": "Via G. di Vittorio 29 c",
    "lat": "46.4756955",
    "lng": "11.3223646",
    "website": "https://www.brservice.it/it/"
  },
  {
    "name": "Bar birreria Romagnolo",
    "street": "Piazza Matteotti 8",
    "lat": "46.4898854",
    "lng": "11.3343352",
    "website": "https://www.facebook.com/barromagnolo/"
  },
  {
    "name": "Bikeshop Engl ",
    "street": "Cavourstrasse 20",
    "lat": "46.5013883",
    "lng": "11.357714",
    "website": "https://bikeshop-engl.it/"
  },
  {
    "name": "Black Sheep ",
    "street": "Piazza Erbe 46A",
    "lat": "46.5002213",
    "lng": "11.3509859",
    "website": "https://linktr.ee/blacksheepbz"
  },
  {
    "name": "Boma Laboratorio Druso",
    "street": "Via Novacella 32",
    "lat": "46.4935429",
    "lng": "11.3363984",
    "website": "https://laboratorio.gruppobonvicini.it/"
  },
  {
    "name": "Bozner Weisse GmbH- Batzen Bräu",
    "street": "Andreas Hofer Str. 30",
    "lat": "46.5013242",
    "lng": "11.3551877",
    "website": "https://www.batzen.it/it/"
  },
  {
    "name": "Bressan ",
    "street": "Via Druso 4",
    "lat": "46.4899469",
    "lng": "11.3295488",
    "website": "http://www.fratellibressan.it/it/illuminazione"
  },
  {
    "name": "Buratti (filiale 1)",
    "street": "via Grappoli 10",
    "lat": "46.4926388",
    "lng": "11.3393195",
    "website": "https://www.buratti.it/it/"
  },
  {
    "name": "Buratti (filiale2)",
    "street": "Via Resia 67 ( angolo via sassari)",
    "lat": "46.4876821",
    "lng": "11.3010136",
    "website": "https://www.buratti.it/it/"
  },
  {
    "name": "Castel Hörtenberg",
    "street": "Via Monte Tondo 4",
    "lat": "46.5021728",
    "lng": "11.358784",
    "website": "https://www.castel-hoertenberg.com/"
  },
  {
    "name": "Commercio in piazza - Südtiroler Market",
    "street": "Via Roma 80/A",
    "lat": "46.490386",
    "lng": "11.3394882",
    "website": "https://de-de.facebook.com/commercioinpiazzaaltoadige/"
  },
  {
    "name": "Corradini",
    "street": "Piazza del Grano 10",
    "lat": "46.4991891",
    "lng": "11.3548845",
    "website": "https://www.corradini.bz/"
  },
  {
    "name": "Daspi ",
    "street": "Galvanistr. 8",
    "lat": "46.4743473",
    "lng": "11.3298534"
  },
  {
    "name": "Drink Bar ",
    "street": "Via Macello 29",
    "lat": "46.4938168",
    "lng": "11.366406"
  },
  {
    "name": "Eccel Decorona (filiale 1)",
    "street": "Dr Streitergasse 23",
    "lat": "46.5001042",
    "lng": "11.3528686",
    "website": "https://www.eccel.it/"
  },
  {
    "name": "Elena Miro",
    "street": "Bahnhofsallee 11 ",
    "lat": "46.4974563",
    "lng": "11.3528986",
    "website": "https://www.elenamiro.com/it_IT/abbigliamento-donna?gclid=EAIaIQobChMIiduF2Y2z-wIVQY9oCR09DQLFEAAYASAAEgJ9OfD_BwE&gclsrc=aw.ds"
  },
  {
    "name": "Emotions le Petit",
    "street": "Corso Libertà 59",
    "lat": "46.5019329",
    "lng": "11.3355238",
    "website": "https://www.facebook.com/bianca.emotions/"
  },
  {
    "name": "Esprit",
    "street": "Via dei Portici 45",
    "lat": "46.499548",
    "lng": "11.3516695",
    "website": "https://www.espritshop.it/?dm_tpl=29898&dm_ad=1&_cclid=Google_EAIaIQobChMIr4uolY6z-wIV_UaRBR0SAAcQEAAYASAAEgKWnPD_BwE&camp=IT_CY_GG_SB_40_141510093505&_cclid=Google_EAIaIQobChMIr4uolY6z-wIV_UaRBR0SAAcQEAAYASAAEgKWnPD_BwE&gclid=EAIaIQobChMIr4uolY6z-wIV_UaRBR0SAAcQEAAYASAAEgKWnPD_BwE&et_uk=0f79ab759e26434da6ade77a88faab71"
  },
  {
    "name": "ESSENZA DI CASA by Ediltris",
    "street": "Via Milano 111",
    "lat": "46.4897623",
    "lng": "11.3278408",
    "website": "https://www.ediltris.com/"
  },
  {
    "name": "Etrebelle di Brunato Marianna ",
    "street": "Via Torino 18",
    "lat": "46.4917471",
    "lng": "11.3382084",
    "website": "https://www.shopetrebelle.it/"
  },
  {
    "name": "Europa Books ",
    "street": "Italien Allee 6",
    "lat": "46.5008787",
    "lng": "11.3374599"
  },
  {
    "name": "Farmacia St. Magdalena Apotheke ",
    "street": "Via Macello 11 E ",
    "lat": "46.4969232",
    "lng": "11.3653595"
  },
  {
    "name": "Farmacie Bonvicini (filiale 1)",
    "street": "Piazza Don Bosco 6",
    "lat": "46.4917351",
    "lng": "11.3244671",
    "website": "https://farmacie.gruppobonvicini.it/"
  },
  {
    "name": "Ferramenta Zanoni di Zanoni Silvio ",
    "street": "Via Torino 27",
    "lat": "46.4914775",
    "lng": "11.3383296",
    "website": "https://www.facebook.com/ferramentazanoni"
  },
  {
    "name": "Fielmann ",
    "street": "Via Museo 15",
    "lat": "46.4931704",
    "lng": "11.3364728",
    "website": "https://www.fielmann.it/it/"
  },
  {
    "name": "Fiori New Prafiori di Patrizia Merlante",
    "street": "Via Milano 130 B",
    "lat": "46.490171",
    "lng": "11.3262505",
    "website": "https://www.prafiori-lab.it/"
  },
  {
    "name": "Foto Gatti di Gatti Stefano ",
    "street": "Via Milano 101 D ",
    "lat": "46.4896645",
    "lng": "11.3289489",
    "website": "https://www.fotogattibz.com/"
  },
  {
    "name": "Four Points by Sheraton Bolzano",
    "street": "Bruno Buozzi 35",
    "lat": "46.4718501",
    "lng": "11.3226102",
    "website": "https://www.marriott.com/en-us/hotels/bzofp-four-points-by-sheraton-bolzano/overview/?scid=f2ae0541-1279-4f24-b197-a979c79310b0"
  },
  {
    "name": "Frame Shop",
    "street": "Via Dalmazia 25/A",
    "lat": "46.4916893",
    "lng": "11.3371191",
    "website": "https://frame-shop-photosi-cornici-creativita.business.site/?utm_source=gmb&utm_medium=referral"
  },
  {
    "name": "Fuganti 30 ",
    "street": "Via Torino 87",
    "lat": "46.4905933",
    "lng": "11.3359453"
  },
  {
    "name": "Gasthaus Fink",
    "street": "Mustergasse 9",
    "lat": "46.4985186",
    "lng": "11.3507559",
    "website": "https://www.restaurant-fink.it/it/"
  },
  {
    "name": "Gastro drink ",
    "street": "Schlachthofstrasse 29",
    "lat": "46.4939556",
    "lng": "11.3679094",
    "website": "https://www.gastrodrink.it/de/kontakt"
  },
  {
    "name": "Gioielleria Bonaldi ",
    "street": "Via Dalmazia 97",
    "lat": "46.4918986",
    "lng": "11.3313305",
    "website": "https://gioielleriabonaldi.it/"
  },
  {
    "name": " Juwelier Parth",
    "street": "Lauben 5",
    "lat": "46.4996489",
    "lng": "11.3539899",
    "website": "https://www.tuugo.it/Companies/parth-di-parth-thomas/0170002688262#!"
  },
  {
    "name": "Globus ",
    "street": "Piazza Municipio 4",
    "lat": "46.4994412",
    "lng": "11.3548164",
    "website": "https://www.globus-mode.com/"
  },
  {
    "name": "Goldschmiede Mair ",
    "street": "Rathausplatz 10A",
    "lat": "46.4997836",
    "lng": "11.3544573",
    "website": "https://www.gioielleriagoldschmiedemair.it/"
  },
  {
    "name": "Green energym ",
    "street": "Via Galvani 3",
    "lat": "46.4769366",
    "lng": "11.3317465",
    "website": "https://www.greenenergym.it/la-palestra/area-forza-e-fitness/"
  },
  {
    "name": "Gutweniger ",
    "street": "Dr, Streitergasse 14",
    "lat": "46.5003911",
    "lng": "11.3534241",
    "website": "http://www.gutweniger.net/index.php/it/"
  },
  {
    "name": "Hostaria Argentieri",
    "street": "Via Argentieri 14",
    "lat": "46.499174",
    "lng": "11.3515163",
    "website": "https://www.facebook.com/people/Hostaria-Argentieri/100057302385928/"
  },
  {
    "name": "Hotel Città ",
    "street": "Piazza Walther 21",
    "lat": "46.4988124",
    "lng": "11.3522756",
    "website": "https://www.hotel-citta.com/"
  },
  {
    "name": "Hotel Post Gries ",
    "street": "Freiheitsstr. 117",
    "lat": "46.5023254",
    "lng": "11.3325163",
    "website": "https://www.hotel-post-gries.com/it/Default.asp"
  },
  {
    "name": "Imagink ",
    "street": "Bruno Buozzi 9",
    "lat": "46.4736665",
    "lng": "11.3237656",
    "website": "https://imagink.it/"
  },
  {
    "name": "Italia&Amore",
    "street": "Via Argentieri 3",
    "lat": "46.4989542",
    "lng": "11.3520649",
    "website": "https://www.italiaamore.it/it/ristorante-mercato-enoteca-italiaamore-1.html"
  },
  {
    "name": "Kellerei Bozen",
    "street": "Moritzinger Weg 36",
    "lat": "46.5014918",
    "lng": "11.3100507",
    "website": "https://www.kellereibozen.com/"
  },
  {
    "name": "Kiros - Balzatti (filiale 1)",
    "street": "Piazza erbe /portici 73",
    "lat": "46.4995507",
    "lng": "11.3504518",
    "website": "https://www.kiros.bz/"
  },
  {
    "name": "Konditorei Klaus",
    "street": "Piazza Maria Delago 1",
    "lat": "46.5012721",
    "lng": "11.3565903",
    "website": "https://www.pasticceriaklaus.it/"
  },
  {
    "name": "La Culla Baby-Land",
    "street": "Via Maso della Pieve 50",
    "lat": "46.4695616",
    "lng": "11.3330857",
    "website": "http://www.laculla.com/it"
  },
  {
    "name": "La Lanterna Ristorante/pizzeria",
    "street": "Via Rovigo 14/B ",
    "lat": "46.4944916",
    "lng": "11.3336706",
    "website": "https://www.pizzeria-lalanterna.it/"
  },
  {
    "name": "Le Coccinelle",
    "street": "Via S. Geltrude 20",
    "lat": "46.4946961",
    "lng": "11.3392709",
    "website": "https://www.facebook.com/IQOSOLTRISARCO"
  },
  {
    "name": "Les Fluers ",
    "street": "Freiheitsstr. 53E",
    "lat": "46.5018326",
    "lng": "11.3360865",
    "website": "https://www.les-fleurs.it/"
  },
  {
    "name": "Libreria Librasi",
    "street": "Via milano 105 A ",
    "lat": "46.4897078",
    "lng": "11.3285528",
    "website": "https://www.facebook.com/librerialibrarsiBZ"
  },
  {
    "name": "M.C System ",
    "street": "Via Ludwig von Comini 8/49",
    "lat": "46.4799824",
    "lng": "11.3256554",
    "website": "https://www.mcsystemsrl.com/"
  },
  {
    "name": "Madonna Apotheke Bozen",
    "street": "Lauben 17",
    "lat": "46.4996122",
    "lng": "11.3532453",
    "website": "https://www.farmaciamadonna.com/"
  },
  {
    "name": "Marka Drogeriemarkt ",
    "street": "Vicolo Grumer 11",
    "lat": "46.4944925",
    "lng": "11.3256611",
    "website": "https://mymarka.it/"
  },
  {
    "name": "Marka Drogeriemarkt ",
    "street": "Via Palermo 10 A (1) ",
    "lat": "46.4865208",
    "lng": "11.3303122",
    "website": "https://mymarka.it/"
  },
  {
    "name": "Marka Drogeriemarkt ",
    "street": "Piazza Don Bosco 5A (1)",
    "lat": "46.4886089",
    "lng": "11.3238598",
    "website": "https://mymarka.it/"
  },
  {
    "name": "Marka Grogeriemarket",
    "street": "Corso Libertà 62 (1)",
    "lat": "46.4952784",
    "lng": "11.3233011",
    "website": "https://mymarka.it/"
  },
  {
    "name": "Max Mara ",
    "street": "Via Portici 66",
    "lat": "46.499654",
    "lng": "11.351079",
    "website": "https://it.maxmara.com/?gclid=EAIaIQobChMIvavv4JOz-wIVJo1oCR0zSwdoEAAYASAAEgJ8__D_BwE&gclsrc=aw.ds"
  },
  {
    "name": "Max&Co ",
    "street": "Via Museo 18",
    "lat": "46.4997715",
    "lng": "11.3492169",
    "website": "https://it.maxandco.com/?gclid=EAIaIQobChMImPSw65Oz-wIVIgqiAx19SAaAEAAYASAAEgKP1PD_BwE&gclsrc=aw.ds"
  },
  {
    "name": "MC Donald's ",
    "street": "Via G. Galilei 20",
    "lat": "46.4836486",
    "lng": "11.3347403",
    "website": "https://www.mcdonalds.it/"
  },
  {
    "name": "Melody Intimo",
    "street": "Via Palermo 37",
    "lat": "46.4913364",
    "lng": "11.3303994",
    "website": "https://de-de.facebook.com/mariapia.cina.16/"
  },
  {
    "name": "Novalux ",
    "street": "Via Grandi 12",
    "lat": "46.486036",
    "lng": "11.337825",
    "website": "https://www.novaluxbz.it/"
  },
  {
    "name": "Oberrauch Zitt ",
    "street": "Via Portici 67",
    "lat": "46.4995587",
    "lng": "11.3507929",
    "website": "https://www.oberrauch-zitt.com/"
  },
  {
    "name": "Oreficeria Orologeria Resia di Gambaroni Fabio",
    "street": "Via Resia 76/c",
    "lat": "46.4870074",
    "lng": "11.316308",
    "website": "https://www.gioielleriaresia.it/"
  },
  {
    "name": "P8 ",
    "street": "Via Portici 8",
    "lat": "46.4998129",
    "lng": "11.3538763",
    "website": "https://www.porticusp8.com/"
  },
  {
    "name": "Palaist Moirè ",
    "street": "Obstplatz 9",
    "lat": "46.499951",
    "lng": "11.3507693",
    "website": "https://moirefashion.com/"
  },
  {
    "name": "Peter's TeaHouse ",
    "street": "Via Argentieri 9",
    "lat": "46.498945",
    "lng": "11.3515223",
    "website": "https://www.peters-teahouse.it/it"
  },
  {
    "name": "Profumeria Ferrari ",
    "street": "Dominikanerplatz 31",
    "lat": "46.4979669",
    "lng": "11.3429595",
    "website": "https://www.profumeriaferrari.it/"
  },
  {
    "name": "Parfumerie Irene Ferrari",
    "street": "Corso libertà 36",
    "lat": "46.5015878",
    "lng": "11.3324474",
    "website": "https://www.profumeriaireneferrari.it/"
  },
  {
    "name": "Radiologia Bonvicini ",
    "street": "Via Michael Pacher 12",
    "lat": "46.506237",
    "lng": "11.3320179",
    "website": "https://casadicura.gruppobonvicini.it/"
  },
  {
    "name": "Ranzi - Knapp ",
    "street": "Weintraubengasse 23/A",
    "lat": "46.4987835",
    "lng": "11.3547966",
    "website": "https://www.ranzi-knapp.it/"
  },
  {
    "name": "Reisebüro Luis Pichler GmbH",
    "street": "Piavestrasse 14-16",
    "lat": "46.4997483",
    "lng": "11.3564038",
    "website": "https://www.luispichler.it/it"
  },
  {
    "name": "Resurrection Hairsalon",
    "street": "Kornplatz 5",
    "lat": "46.4990074",
    "lng": "11.3529854",
    "website": "https://de-de.facebook.com/people/Resurrection-Hairsalon/100063604839234/"
  },
  {
    "name": "Rezia servizi",
    "street": "Via Roma 80/A",
    "lat": "46.4904246",
    "lng": "11.3394634",
    "website": "https://www.commercianti.bz.it/"
  },
  {
    "name": "Rizzolli ",
    "street": "Via Portici 60",
    "lat": "46.4996585",
    "lng": "11.3513898",
    "website": "https://www.rizzolli.com/it/"
  },
  {
    "name": "Scala Hotel Stiegl ",
    "street": "Via Brennero 11",
    "lat": "46.4983586",
    "lng": "11.3547856",
    "website": "https://www.scalahot.com/"
  },
  {
    "name": "Schmid & von Bosio ",
    "street": "Laubengase 59",
    "lat": "46.499401",
    "lng": "11.3506831",
    "website": "https://www.schmidvonbosio.com/"
  },
  {
    "name": "Schönhuber Franchi",
    "street": "Streitergasse 4",
    "lat": "46.5002811",
    "lng": "11.3540814",
    "website": "https://www.schoenhuberfranchi.it/"
  },
  {
    "name": "Schuhhaus Fill",
    "street": "Freiheitsstr. 65E",
    "lat": "46.5019853",
    "lng": "11.3351856",
    "website": "http://www.fillbz.it/"
  },
  {
    "name": "Sigi Autotechnik",
    "street": "Piazza della dogana 9 ",
    "lat": "46.5001057",
    "lng": "11.3586187",
    "website": "https://www.autosigi.it/"
  },
  {
    "name": "Sportler ",
    "street": "Enrico Fermi Strasse 14",
    "lat": "46.4771957",
    "lng": "11.3246259",
    "website": "https://www.sportler.com/"
  },
  {
    "name": "Sportler ",
    "street": " Lauben 1. Rathausplatz  (Sportler )",
    "lat": "46.4884149",
    "lng": "11.3240767",
    "website": "https://www.sportler.com/"
  },
  {
    "name": "Sportler Alpin",
    "street": "Lauben 37 (Sportler Alpin)",
    "lat": "46.4884149",
    "lng": "11.3240767",
    "website": "https://www.sportler.com/"
  },
  {
    "name": "Sportler Bike",
    "street": "Bruno Buozzi str 18 ( Sportler Bike)",
    "lat": "46.4732396",
    "lng": "11.3228952",
    "website": "https://www.sportler.com/"
  },
  {
    "name": "Stiftung Bozner Schloesser ",
    "street": "c/o Schloss Maretsch - Claudia - de' - Medici ",
    "lat": "46.502696",
    "lng": "11.3499508",
    "website": "https://www.runkelstein.info/transparenz"
  },
  {
    "name": "Stoffe Corradini ",
    "street": "Vintlergalerie 6",
    "lat": "46.5004307",
    "lng": "11.3532592"
  },
  {
    "name": "Straudi",
    "street": "Via Mayer Nusser 26",
    "lat": "46.4934285",
    "lng": "11.3564331",
    "website": "https://www.straudi.it/"
  },
  {
    "name": "Sweet House di Gruber Renate",
    "street": "Via Palermo 27/A",
    "lat": "46.4936901",
    "lng": "11.3287559",
    "website": "https://it-it.facebook.com/people/Sweet-House-Bolzano/100063501040605/"
  },
  {
    "name": "Tabaccheria Gruber Martin",
    "street": "Piavestr. 24C",
    "lat": "46.4998272",
    "lng": "11.3574942"
  },
  {
    "name": "Thaler srl  Beautiful things (filiale 1)",
    "street": "Portici 69 (4)",
    "lat": "46.499574",
    "lng": "11.350755",
    "website": "https://www.thalershop.com/"
  },
  {
    "name": "Thaler srl Beautiful things (filiale 3)",
    "street": "Via Roma 35 (1)",
    "lat": "46.4961697",
    "lng": "11.3384495",
    "website": "https://www.thalershop.com/"
  },
  {
    "name": "Thaler srl Beautiful things (filiale 4)",
    "street": "Via Milano (1) ",
    "lat": "46.489551",
    "lng": "11.3251348",
    "website": "https://www.thalershop.com/"
  },
  {
    "name": "Thaler srl Vital (sede principale)",
    "street": "Portici 35  (1)",
    "lat": "46.4995721",
    "lng": "11.3515421",
    "website": "https://www.thalershop.com/"
  },
  {
    "name": "Trony ",
    "street": "Via Resia 12/R",
    "lat": "46.4914643",
    "lng": "11.312332"
  },
  {
    "name": "Tschager ",
    "street": "Laubengasse 2",
    "lat": "46.4997626",
    "lng": "11.3542505",
    "website": "https://www.manueltschager.com/it/"
  },
  {
    "name": "Optik Wassermann",
    "street": "Lauben 72/B",
    "lat": "46.4996579",
    "lng": "11.3510831",
    "website": "https://www.optikwassermann.com/21/?lang=it"
  },
  {
    "name": "Wirtshaus Vögele",
    "street": "Goethestrasse 3 ",
    "lat": "46.4990637",
    "lng": "11.3503515",
    "website": "https://www.voegele.it/"
  },
  {
    "name": "Zucchi Tours ",
    "street": "Via Firenze 46",
    "lat": "46.492845",
    "lng": "11.342622",
    "website": "https://zucchitours.com/"
  },
  {
    "name": "ASPIAG ",
    "street": "Despar - Bolzano - Corso Libertà , 90",
    "lat": "46.5023332",
    "lng": "11.3350089",
    "website": "https://www.aspiag.com/"
  },
  {
    "name": "ASPIAG ",
    "street": "Despar - Bolzano - Piazzetta A. Frank, 11",
    "lat": "46.4816436",
    "lng": "11.3165397",
    "website": "https://www.aspiag.com/"
  },
  {
    "name": "ASPIAG ",
    "street": "Despar - Bolzano - Via Amba Alagi, 1",
    "lat": "46.5002117",
    "lng": "11.3400187",
    "website": "https://www.aspiag.com/"
  },
  {
    "name": "ASPIAG ",
    "street": "Despar - Bolzano - Via Bari, 13",
    "lat": "46.4865855",
    "lng": "11.3227897",
    "website": "https://www.aspiag.com/"
  },
  {
    "name": "ASPIAG ",
    "street": "Despar - Bolzano - Via Bottai, 29",
    "lat": "46.4992175",
    "lng": "11.3543132",
    "website": "https://www.aspiag.com/"
  },
  {
    "name": "ASPIAG ",
    "street": "Despar - Bolzano - Via C. Augusta 111/a",
    "lat": "46.4810035",
    "lng": "11.3388474",
    "website": "https://www.aspiag.com/"
  },
  {
    "name": "ASPIAG ",
    "street": "Despar - Bolzano - Via C. Augusta, 51",
    "lat": "46.4832318",
    "lng": "11.3413182",
    "website": "https://www.aspiag.com/"
  },
  {
    "name": "ASPIAG ",
    "street": "Despar - Bolzano - Via Cavour, 25",
    "lat": "46.5003424",
    "lng": "11.3316856",
    "website": "https://www.aspiag.com/"
  },
  {
    "name": "ASPIAG ",
    "street": "Despar - Bolzano - Via Crispi, 21",
    "lat": "46.4992846",
    "lng": "11.3580455",
    "website": "https://www.aspiag.com/"
  },
  {
    "name": "ASPIAG ",
    "street": "Despar - Bolzano - Via Della Rena, 22/b",
    "lat": "46.4983498",
    "lng": "11.3562195",
    "website": "https://www.aspiag.com/"
  },
  {
    "name": "ASPIAG ",
    "street": "Despar - Bolzano - Via Museo, 2",
    "lat": "46.4996807",
    "lng": "11.3502007",
    "website": "https://www.aspiag.com/"
  },
  {
    "name": "ASPIAG ",
    "street": "Despar - Bolzano - Via Palermo, 50",
    "lat": "46.4911804",
    "lng": "11.3298769",
    "website": "https://www.aspiag.com/"
  },
  {
    "name": "ASPIAG ",
    "street": "Despar - Bolzano - Via Parma, 52",
    "lat": "46.4888109",
    "lng": "11.3189512",
    "website": "https://www.aspiag.com/"
  },
  {
    "name": "ASPIAG ",
    "street": "Despar - Bolzano - Viale Druso, 90/c",
    "lat": "46.4950301",
    "lng": "11.3262203",
    "website": "https://www.aspiag.com/"
  },
  {
    "name": "ASPIAG ",
    "street": "Eurospar - Bolzano - Via Galilei, 20/a",
    "lat": "46.4867028",
    "lng": "11.3351347",
    "website": "https://www.aspiag.com/"
  },
  {
    "name": "ASPIAG ",
    "street": "Eurospar - Bolzano - Via Museo, 39",
    "lat": "46.4998754",
    "lng": "11.3477604",
    "website": "https://www.aspiag.com/"
  },
  {
    "name": "ASPIAG ",
    "street": "Eurospar - Bolzano - Via Palermo, 20",
    "lat": "46.4933838",
    "lng": "11.3304663",
    "website": "https://www.aspiag.com/"
  },
  {
    "name": "ASPIAG ",
    "street": "Eurospar - Bolzano - Via Resia, 22",
    "lat": "46.488247",
    "lng": "11.3148928",
    "website": "https://www.aspiag.com/"
  },
  {
    "name": "ASPIAG ",
    "street": "Eurospar - Bolzano - via Roma 18/H",
    "lat": "46.4933651",
    "lng": "11.3378759",
    "website": "https://www.aspiag.com/"
  },
  {
    "name": "ASPIAG ",
    "street": "Eurospar - Bolzano - Viale Druso 160",
    "lat": "46.4941943",
    "lng": "11.3089009",
    "website": "https://www.aspiag.com/"
  },
  {
    "name": "ASPIAG ",
    "street": "Interspar - Bolzano - Via Buozzi, 30",
    "lat": "46.4944925",
    "lng": "11.3256611",
    "website": "https://www.aspiag.com/"
  },
  {
    "name": "Rubatscher",
    "street": "Via dei portici 28",
    "lat": "46.4996807",
    "lng": "11.352828",
    "website": "https://www.moderubatscher.com/"
  }
]
